{
"type": "FeatureCollection",
"name": "2343",
"crs": { "type": "name", "properties": { "name": "urn:ogc:def:crs:OGC:1.3:CRS84" } },
"features": [
{ "type": "Feature", "properties": { "PSSE New BUS": "1001", "SSWG Bus Name": "AROYA_8", "SSWG kV": "138", "Weather Zone": "WZ_FAR_WEST", "Settlement Zone": "LZ_WEST", "Planning Bus Long Name": "AROYA_8", "TSP": "ONCOR", "County": "WARD", "Utility EIA ID": "44372", "Zip Code": "79788", "Latitude": 31.58118, "Longitude": -102.99117 }, "geometry": { "type": "Point", "coordinates": [ -102.99117, 31.58118 ] } },
{ "type": "Feature", "properties": { "PSSE New BUS": "1009", "SSWG Bus Name": "YUCCADR_8", "SSWG kV": "138", "Weather Zone": "WZ_FAR_WEST", "Settlement Zone": "LZ_WEST", "Planning Bus Long Name": "PERMIANS_8", "TSP": "ONCOR", "County": "WARD", "Utility EIA ID": "44372", "Zip Code": "79756", "Latitude": 31.58479, "Longitude": -102.9627 }, "geometry": { "type": "Point", "coordinates": [ -102.9627, 31.58479 ] } },
{ "type": "Feature", "properties": { "PSSE New BUS": "1010", "SSWG Bus Name": "PERMIANB_8", "SSWG kV": "138", "Weather Zone": "WZ_FAR_WEST", "Settlement Zone": "LZ_WEST", "Planning Bus Long Name": "PERMIANB_8", "TSP": "ONCOR", "County": "WARD", "Utility EIA ID": "44372", "Zip Code": "79756", "Latitude": 31.58445, "Longitude": -102.9626 }, "geometry": { "type": "Point", "coordinates": [ -102.9626, 31.58445 ] } },
{ "type": "Feature", "properties": { "PSSE New BUS": "1011", "SSWG Bus Name": "HORSHEADRW_8", "SSWG kV": "138", "Weather Zone": "WZ_FAR_WEST", "Settlement Zone": "LZ_WEST", "Planning Bus Long Name": "MENTONE_SW_8", "TSP": "ONCOR", "County": "LOVING", "Utility EIA ID": "", "Zip Code": "79772", "Latitude": 31.509593, "Longitude": -103.517152 }, "geometry": { "type": "Point", "coordinates": [ -103.517152, 31.509593 ] } },
{ "type": "Feature", "properties": { "PSSE New BUS": "1013", "SSWG Bus Name": "WOLFSS_8", "SSWG kV": "138", "Weather Zone": "WZ_FAR_WEST", "Settlement Zone": "LZ_WEST", "Planning Bus Long Name": "MONAHANS_8", "TSP": "ONCOR", "County": "WARD", "Utility EIA ID": "44372", "Zip Code": "79756", "Latitude": 31.58762, "Longitude": -102.955 }, "geometry": { "type": "Point", "coordinates": [ -102.955, 31.58762 ] } },
{ "type": "Feature", "properties": { "PSSE New BUS": "1018", "SSWG Bus Name": "MOSS_5", "SSWG kV": "345", "Weather Zone": "WZ_FAR_WEST", "Settlement Zone": "LZ_WEST", "Planning Bus Long Name": "MOSS_5", "TSP": "ONCOR", "County": "ECTOR", "Utility EIA ID": "44372", "Zip Code": "79763", "Latitude": 31.81268, "Longitude": -102.4952 }, "geometry": { "type": "Point", "coordinates": [ -102.4952, 31.81268 ] } },
{ "type": "Feature", "properties": { "PSSE New BUS": "1019", "SSWG Bus Name": "MOSS_8", "SSWG kV": "138", "Weather Zone": "WZ_FAR_WEST", "Settlement Zone": "LZ_WEST", "Planning Bus Long Name": "MOSS_8", "TSP": "ONCOR", "County": "ECTOR", "Utility EIA ID": "44372", "Zip Code": "79763", "Latitude": 31.81268, "Longitude": -102.4952 }, "geometry": { "type": "Point", "coordinates": [ -102.4952, 31.81268 ] } },
{ "type": "Feature", "properties": { "PSSE New BUS": "1020", "SSWG Bus Name": "ODEHV1T_5", "SSWG kV": "345", "Weather Zone": "WZ_FAR_WEST", "Settlement Zone": "LZ_WEST", "Planning Bus Long Name": "ODEHV1T_5", "TSP": "ONCOR", "County": "ECTOR", "Utility EIA ID": "44372", "Zip Code": "79766", "Latitude": 31.83626, "Longitude": -102.3295 }, "geometry": { "type": "Point", "coordinates": [ -102.3295, 31.83626 ] } },
{ "type": "Feature", "properties": { "PSSE New BUS": "1026", "SSWG Bus Name": "ODEHV2T_5", "SSWG kV": "345", "Weather Zone": "WZ_FAR_WEST", "Settlement Zone": "LZ_WEST", "Planning Bus Long Name": "ODEHV2T_5", "TSP": "ONCOR", "County": "ECTOR", "Utility EIA ID": "44372", "Zip Code": "79766", "Latitude": 31.83626, "Longitude": -102.3295 }, "geometry": { "type": "Point", "coordinates": [ -102.3295, 31.83626 ] } },
{ "type": "Feature", "properties": { "PSSE New BUS": "1027", "SSWG Bus Name": "ODESEHV_8", "SSWG kV": "138", "Weather Zone": "WZ_FAR_WEST", "Settlement Zone": "LZ_WEST", "Planning Bus Long Name": "ODESEHV_8", "TSP": "ONCOR", "County": "ECTOR", "Utility EIA ID": "44372", "Zip Code": "79766", "Latitude": 31.83626, "Longitude": -102.3295 }, "geometry": { "type": "Point", "coordinates": [ -102.3295, 31.83626 ] } },
{ "type": "Feature", "properties": { "PSSE New BUS": "1028", "SSWG Bus Name": "ODEHVC_5", "SSWG kV": "345", "Weather Zone": "WZ_FAR_WEST", "Settlement Zone": "LZ_WEST", "Planning Bus Long Name": "ODEHVC_5", "TSP": "ONCOR", "County": "ECTOR", "Utility EIA ID": "44372", "Zip Code": "79766", "Latitude": 31.83626, "Longitude": -102.3295 }, "geometry": { "type": "Point", "coordinates": [ -102.3295, 31.83626 ] } },
{ "type": "Feature", "properties": { "PSSE New BUS": "1029", "SSWG Bus Name": "ODEHVD_5", "SSWG kV": "345", "Weather Zone": "WZ_FAR_WEST", "Settlement Zone": "LZ_WEST", "Planning Bus Long Name": "ODEHVD_5", "TSP": "ONCOR", "County": "ECTOR", "Utility EIA ID": "44372", "Zip Code": "79766", "Latitude": 31.83626, "Longitude": -102.3295 }, "geometry": { "type": "Point", "coordinates": [ -102.3295, 31.83626 ] } },
{ "type": "Feature", "properties": { "PSSE New BUS": "1052", "SSWG Bus Name": "REXALL_8", "SSWG kV": "138", "Weather Zone": "WZ_FAR_WEST", "Settlement Zone": "LZ_WEST", "Planning Bus Long Name": "REXALL_8", "TSP": "ONCOR", "County": "ECTOR", "Utility EIA ID": "44372", "Zip Code": "79766", "Latitude": 31.82736, "Longitude": -102.3271 }, "geometry": { "type": "Point", "coordinates": [ -102.3271, 31.82736 ] } },
{ "type": "Feature", "properties": { "PSSE New BUS": "1053", "SSWG Bus Name": "GENRUBR_8", "SSWG kV": "138", "Weather Zone": "WZ_FAR_WEST", "Settlement Zone": "LZ_WEST", "Planning Bus Long Name": "GENRUBR_8", "TSP": "ONCOR", "County": "ECTOR", "Utility EIA ID": "44372", "Zip Code": "79766", "Latitude": 31.82598, "Longitude": -102.335 }, "geometry": { "type": "Point", "coordinates": [ -102.335, 31.82598 ] } },
{ "type": "Feature", "properties": { "PSSE New BUS": "1054", "SSWG Bus Name": "OLFNNSHL_8", "SSWG kV": "138", "Weather Zone": "WZ_FAR_WEST", "Settlement Zone": "LZ_WEST", "Planning Bus Long Name": "OLFNNSHL_8", "TSP": "ONCOR", "County": "ECTOR", "Utility EIA ID": "44372", "Zip Code": "79766", "Latitude": 31.83401, "Longitude": -102.3263 }, "geometry": { "type": "Point", "coordinates": [ -102.3263, 31.83401 ] } },
{ "type": "Feature", "properties": { "PSSE New BUS": "1074", "SSWG Bus Name": "WINKSS_8", "SSWG kV": "138", "Weather Zone": "WZ_FAR_WEST", "Settlement Zone": "LZ_WEST", "Planning Bus Long Name": "WINKSS_8", "TSP": "ONCOR", "County": "WINKLER", "Utility EIA ID": "40051", "Zip Code": "79789", "Latitude": 31.76329, "Longitude": -103.1448 }, "geometry": { "type": "Point", "coordinates": [ -103.1448, 31.76329 ] } },
{ "type": "Feature", "properties": { "PSSE New BUS": "1077", "SSWG Bus Name": "BALDING_8", "SSWG kV": "138", "Weather Zone": "WZ_FAR_WEST", "Settlement Zone": "LZ_WEST", "Planning Bus Long Name": "WILDCAT_8", "TSP": "ONCOR", "County": "WINKLER", "Utility EIA ID": "40051", "Zip Code": "79789", "Latitude": 31.80242, "Longitude": -103.23995 }, "geometry": { "type": "Point", "coordinates": [ -103.23995, 31.80242 ] } },
{ "type": "Feature", "properties": { "PSSE New BUS": "1079", "SSWG Bus Name": "SALTCRKW_8", "SSWG kV": "138", "Weather Zone": "WZ_FAR_WEST", "Settlement Zone": "LZ_WEST", "Planning Bus Long Name": "SALTCRKW_8", "TSP": "ONCOR", "County": "WINKLER", "Utility EIA ID": "44372", "Zip Code": "79770", "Latitude": 31.81771, "Longitude": -104.04646 }, "geometry": { "type": "Point", "coordinates": [ -104.04646, 31.81771 ] } },
{ "type": "Feature", "properties": { "PSSE New BUS": "1080", "SSWG Bus Name": "WHITOIL_8", "SSWG kV": "138", "Weather Zone": "WZ_FAR_WEST", "Settlement Zone": "LZ_WEST", "Planning Bus Long Name": "WHITOIL_8", "TSP": "ONCOR", "County": "WARD", "Utility EIA ID": "44372", "Zip Code": "79788", "Latitude": 31.5812, "Longitude": -102.9911 }, "geometry": { "type": "Point", "coordinates": [ -102.9911, 31.5812 ] } },
{ "type": "Feature", "properties": { "PSSE New BUS": "1081", "SSWG Bus Name": "ANDRANCHT_8", "SSWG kV": "138", "Weather Zone": "WZ_FAR_WEST", "Settlement Zone": "LZ_WEST", "Planning Bus Long Name": "ANADARKOT_8", "TSP": "ONCOR", "County": "LOVING", "Utility EIA ID": "44372", "Zip Code": "79754", "Latitude": 31.90415, "Longitude": -103.70978 }, "geometry": { "type": "Point", "coordinates": [ -103.70978, 31.90415 ] } },
{ "type": "Feature", "properties": { "PSSE New BUS": "1083", "SSWG Bus Name": "MIDCREST_8", "SSWG kV": "138", "Weather Zone": "WZ_FAR_WEST", "Settlement Zone": "LZ_WEST", "Planning Bus Long Name": "NUEVOMID1_8", "TSP": "ONCOR", "County": "CULBERSON", "Utility EIA ID": "44372", "Zip Code": "79770", "Latitude": 31.80237, "Longitude": -103.8183 }, "geometry": { "type": "Point", "coordinates": [ -103.8183, 31.80237 ] } },
{ "type": "Feature", "properties": { "PSSE New BUS": "1085", "SSWG Bus Name": "RED_BLUFF1_8", "SSWG kV": "138", "Weather Zone": "WZ_FAR_WEST", "Settlement Zone": "LZ_WEST", "Planning Bus Long Name": "MENTONE_SW_8", "TSP": "ONCOR", "County": "REEVES", "Utility EIA ID": "44372", "Zip Code": "79770", "Latitude": 31.80041, "Longitude": -103.932 }, "geometry": { "type": "Point", "coordinates": [ -103.932, 31.80041 ] } },
{ "type": "Feature", "properties": { "PSSE New BUS": "1088", "SSWG Bus Name": "WICKETT_8", "SSWG kV": "138", "Weather Zone": "WZ_FAR_WEST", "Settlement Zone": "LZ_WEST", "Planning Bus Long Name": "WICKETT_8", "TSP": "ONCOR", "County": "WARD", "Utility EIA ID": "44372", "Zip Code": "79788", "Latitude": 31.58104, "Longitude": -102.9914 }, "geometry": { "type": "Point", "coordinates": [ -102.9914, 31.58104 ] } },
{ "type": "Feature", "properties": { "PSSE New BUS": "1090", "SSWG Bus Name": "SCRWBEAN_8", "SSWG kV": "138", "Weather Zone": "WZ_FAR_WEST", "Settlement Zone": "LZ_WEST", "Planning Bus Long Name": "SCRWBEAN_8", "TSP": "ONCOR", "County": "CULBERSON", "Utility EIA ID": "44372", "Zip Code": "79770", "Latitude": 31.8218, "Longitude": -104.04579 }, "geometry": { "type": "Point", "coordinates": [ -104.04579, 31.8218 ] } },
{ "type": "Feature", "properties": { "PSSE New BUS": "1091", "SSWG Bus Name": "WARDGULF_8", "SSWG kV": "138", "Weather Zone": "WZ_FAR_WEST", "Settlement Zone": "LZ_WEST", "Planning Bus Long Name": "WARDGULF_8", "TSP": "ONCOR", "County": "WARD", "Utility EIA ID": "40051", "Zip Code": "79788", "Latitude": 31.5755, "Longitude": -103.0237 }, "geometry": { "type": "Point", "coordinates": [ -103.0237, 31.5755 ] } },
{ "type": "Feature", "properties": { "PSSE New BUS": "1092", "SSWG Bus Name": "LOVING_8", "SSWG kV": "138", "Weather Zone": "WZ_FAR_WEST", "Settlement Zone": "LZ_WEST", "Planning Bus Long Name": "LOVING_8", "TSP": "ONCOR", "County": "LOVING", "Utility EIA ID": "44372", "Zip Code": "79754", "Latitude": 31.77631, "Longitude": -103.40526 }, "geometry": { "type": "Point", "coordinates": [ -103.40526, 31.77631 ] } },
{ "type": "Feature", "properties": { "PSSE New BUS": "1093", "SSWG Bus Name": "ELMAR_8", "SSWG kV": "138", "Weather Zone": "WZ_FAR_WEST", "Settlement Zone": "LZ_WEST", "Planning Bus Long Name": "ELMAR_8", "TSP": "ONCOR", "County": "LOVING", "Utility EIA ID": "44372", "Zip Code": "79754", "Latitude": 31.78814, "Longitude": -103.6198 }, "geometry": { "type": "Point", "coordinates": [ -103.6198, 31.78814 ] } },
{ "type": "Feature", "properties": { "PSSE New BUS": "1094", "SSWG Bus Name": "MASON_8", "SSWG kV": "138", "Weather Zone": "WZ_FAR_WEST", "Settlement Zone": "LZ_WEST", "Planning Bus Long Name": "MASON_8", "TSP": "ONCOR", "County": "REEVES", "Utility EIA ID": "44372", "Zip Code": "79770", "Latitude": 31.80321, "Longitude": -103.8139 }, "geometry": { "type": "Point", "coordinates": [ -103.8139, 31.80321 ] } },
{ "type": "Feature", "properties": { "PSSE New BUS": "1096", "SSWG Bus Name": "BLACKRVR_8", "SSWG kV": "138", "Weather Zone": "WZ_FAR_WEST", "Settlement Zone": "LZ_WEST", "Planning Bus Long Name": "BLACKRVR_8", "TSP": "ONCOR", "County": "CULBERSON", "Utility EIA ID": "44372", "Zip Code": "79772", "Latitude": 31.83377, "Longitude": -104.2868 }, "geometry": { "type": "Point", "coordinates": [ -104.2868, 31.83377 ] } },
{ "type": "Feature", "properties": { "PSSE New BUS": "1097", "SSWG Bus Name": "CULBERSONT_8", "SSWG kV": "138", "Weather Zone": "WZ_FAR_WEST", "Settlement Zone": "LZ_WEST", "Planning Bus Long Name": "TWPPMTR_8", "TSP": "ONCOR", "County": "CULBERSON", "Utility EIA ID": "44372", "Zip Code": "79772", "Latitude": 31.7581, "Longitude": -104.3043 }, "geometry": { "type": "Point", "coordinates": [ -104.3043, 31.7581 ] } },
{ "type": "Feature", "properties": { "PSSE New BUS": "1100", "SSWG Bus Name": "SWPORTLA_8", "SSWG kV": "138", "Weather Zone": "WZ_FAR_WEST", "Settlement Zone": "LZ_WEST", "Planning Bus Long Name": "SWPORTLA_8", "TSP": "ONCOR", "County": "ECTOR", "Utility EIA ID": "44372", "Zip Code": "79763", "Latitude": 31.74698, "Longitude": -102.5447 }, "geometry": { "type": "Point", "coordinates": [ -102.5447, 31.74698 ] } },
{ "type": "Feature", "properties": { "PSSE New BUS": "1101", "SSWG Bus Name": "EDWARDS_8", "SSWG kV": "138", "Weather Zone": "WZ_FAR_WEST", "Settlement Zone": "LZ_WEST", "Planning Bus Long Name": "EDWARDS_8", "TSP": "ONCOR", "County": "CRANE", "Utility EIA ID": "44372", "Zip Code": "79766", "Latitude": 31.64413, "Longitude": -102.5045 }, "geometry": { "type": "Point", "coordinates": [ -102.5045, 31.64413 ] } },
{ "type": "Feature", "properties": { "PSSE New BUS": "1102", "SSWG Bus Name": "JUDKINS_8", "SSWG kV": "138", "Weather Zone": "WZ_FAR_WEST", "Settlement Zone": "LZ_WEST", "Planning Bus Long Name": "JUDKINS_8", "TSP": "ONCOR", "County": "ECTOR", "Utility EIA ID": "44372", "Zip Code": "79766", "Latitude": 31.71652, "Longitude": -102.5972 }, "geometry": { "type": "Point", "coordinates": [ -102.5972, 31.71652 ] } },
{ "type": "Feature", "properties": { "PSSE New BUS": "1104", "SSWG Bus Name": "SANDHILL_8", "SSWG kV": "138", "Weather Zone": "WZ_FAR_WEST", "Settlement Zone": "LZ_WEST", "Planning Bus Long Name": "SANDHILL_8", "TSP": "ONCOR", "County": "CRANE", "Utility EIA ID": "44372", "Zip Code": "79756", "Latitude": 31.63003, "Longitude": -102.8543 }, "geometry": { "type": "Point", "coordinates": [ -102.8543, 31.63003 ] } },
{ "type": "Feature", "properties": { "PSSE New BUS": "1106", "SSWG Bus Name": "MONAHN1_8", "SSWG kV": "138", "Weather Zone": "WZ_FAR_WEST", "Settlement Zone": "LZ_WEST", "Planning Bus Long Name": "MONAHN1_8", "TSP": "ONCOR", "County": "WARD", "Utility EIA ID": "44372", "Zip Code": "79756", "Latitude": 31.59421, "Longitude": -102.8997 }, "geometry": { "type": "Point", "coordinates": [ -102.8997, 31.59421 ] } },
{ "type": "Feature", "properties": { "PSSE New BUS": "1108", "SSWG Bus Name": "MONAHN2_8", "SSWG kV": "138", "Weather Zone": "WZ_FAR_WEST", "Settlement Zone": "LZ_WEST", "Planning Bus Long Name": "MONAHN2_8", "TSP": "ONCOR", "County": "WARD", "Utility EIA ID": "44372", "Zip Code": "79756", "Latitude": 31.59421, "Longitude": -102.8997 }, "geometry": { "type": "Point", "coordinates": [ -102.8997, 31.59421 ] } },
{ "type": "Feature", "properties": { "PSSE New BUS": "1112", "SSWG Bus Name": "BIG3OD_8", "SSWG kV": "138", "Weather Zone": "WZ_FAR_WEST", "Settlement Zone": "LZ_WEST", "Planning Bus Long Name": "BIG3OD_8", "TSP": "ONCOR", "County": "ECTOR", "Utility EIA ID": "44372", "Zip Code": "79766", "Latitude": 31.82726, "Longitude": -102.3272 }, "geometry": { "type": "Point", "coordinates": [ -102.3272, 31.82726 ] } },
{ "type": "Feature", "properties": { "PSSE New BUS": "1113", "SSWG Bus Name": "ODESASW1_8", "SSWG kV": "138", "Weather Zone": "WZ_FAR_WEST", "Settlement Zone": "LZ_WEST", "Planning Bus Long Name": "ODESASW1_8", "TSP": "ONCOR", "County": "ECTOR", "Utility EIA ID": "44372", "Zip Code": "79766", "Latitude": 31.79891, "Longitude": -102.3913 }, "geometry": { "type": "Point", "coordinates": [ -102.3913, 31.79891 ] } },
{ "type": "Feature", "properties": { "PSSE New BUS": "1115", "SSWG Bus Name": "TIDEWATER_8", "SSWG kV": "138", "Weather Zone": "WZ_FAR_WEST", "Settlement Zone": "LZ_WEST", "Planning Bus Long Name": "TIDEWATER_8", "TSP": "ONCOR", "County": "ECTOR", "Utility EIA ID": "44372", "Zip Code": "79766", "Latitude": 31.85255, "Longitude": -102.3077 }, "geometry": { "type": "Point", "coordinates": [ -102.3077, 31.85255 ] } },
{ "type": "Feature", "properties": { "PSSE New BUS": "1121", "SSWG Bus Name": "GLENHAVN_8", "SSWG kV": "138", "Weather Zone": "WZ_FAR_WEST", "Settlement Zone": "LZ_WEST", "Planning Bus Long Name": "GLENHAVN_8", "TSP": "ONCOR", "County": "ECTOR", "Utility EIA ID": "44372", "Zip Code": "79762", "Latitude": 31.89035, "Longitude": -102.3084 }, "geometry": { "type": "Point", "coordinates": [ -102.3084, 31.89035 ] } },
{ "type": "Feature", "properties": { "PSSE New BUS": "1122", "SSWG Bus Name": "ODESSANO_8", "SSWG kV": "138", "Weather Zone": "WZ_FAR_WEST", "Settlement Zone": "LZ_WEST", "Planning Bus Long Name": "ODESSANO_8", "TSP": "ONCOR", "County": "ECTOR", "Utility EIA ID": "44372", "Zip Code": "79764", "Latitude": 31.87245, "Longitude": -102.3975 }, "geometry": { "type": "Point", "coordinates": [ -102.3975, 31.87245 ] } },
{ "type": "Feature", "properties": { "PSSE New BUS": "1123", "SSWG Bus Name": "ODESSANO_9", "SSWG kV": "69", "Weather Zone": "WZ_FAR_WEST", "Settlement Zone": "LZ_WEST", "Planning Bus Long Name": "ODESSANO_9", "TSP": "ONCOR", "County": "ECTOR", "Utility EIA ID": "44372", "Zip Code": "79764", "Latitude": 31.87245, "Longitude": -102.3975 }, "geometry": { "type": "Point", "coordinates": [ -102.3975, 31.87245 ] } },
{ "type": "Feature", "properties": { "PSSE New BUS": "1126", "SSWG Bus Name": "ODESSA2_8", "SSWG kV": "138", "Weather Zone": "WZ_FAR_WEST", "Settlement Zone": "LZ_WEST", "Planning Bus Long Name": "ODESSA2_8", "TSP": "ONCOR", "County": "ECTOR", "Utility EIA ID": "44372", "Zip Code": "79766", "Latitude": 31.83556, "Longitude": -102.3303 }, "geometry": { "type": "Point", "coordinates": [ -102.3303, 31.83556 ] } },
{ "type": "Feature", "properties": { "PSSE New BUS": "1128", "SSWG Bus Name": "LIQDAIR_8", "SSWG kV": "138", "Weather Zone": "WZ_FAR_WEST", "Settlement Zone": "LZ_WEST", "Planning Bus Long Name": "LIQDAIR_8", "TSP": "ONCOR", "County": "ECTOR", "Utility EIA ID": "", "Zip Code": "79761", "Latitude": 31.84834, "Longitude": -102.3546 }, "geometry": { "type": "Point", "coordinates": [ -102.3546, 31.84834 ] } },
{ "type": "Feature", "properties": { "PSSE New BUS": "1129", "SSWG Bus Name": "WESTOVER_8", "SSWG kV": "138", "Weather Zone": "WZ_FAR_WEST", "Settlement Zone": "LZ_WEST", "Planning Bus Long Name": "WESTOVER_8", "TSP": "ONCOR", "County": "ECTOR", "Utility EIA ID": "44372", "Zip Code": "79763", "Latitude": 31.83606, "Longitude": -102.4436 }, "geometry": { "type": "Point", "coordinates": [ -102.4436, 31.83606 ] } },
{ "type": "Feature", "properties": { "PSSE New BUS": "1130", "SSWG Bus Name": "AMOSFOST_8", "SSWG kV": "138", "Weather Zone": "WZ_FAR_WEST", "Settlement Zone": "LZ_WEST", "Planning Bus Long Name": "AMOSFOST_8", "TSP": "ONCOR", "County": "ECTOR", "Utility EIA ID": "44372", "Zip Code": "79763", "Latitude": 31.83894, "Longitude": -102.4388 }, "geometry": { "type": "Point", "coordinates": [ -102.4388, 31.83894 ] } },
{ "type": "Feature", "properties": { "PSSE New BUS": "1139", "SSWG Bus Name": "HEADLEE_8", "SSWG kV": "138", "Weather Zone": "WZ_FAR_WEST", "Settlement Zone": "LZ_WEST", "Planning Bus Long Name": "HEADLEE_8", "TSP": "ONCOR", "County": "ECTOR", "Utility EIA ID": "44372", "Zip Code": "79766", "Latitude": 31.83523, "Longitude": -102.3303 }, "geometry": { "type": "Point", "coordinates": [ -102.3303, 31.83523 ] } },
{ "type": "Feature", "properties": { "PSSE New BUS": "1141", "SSWG Bus Name": "HOLTSS_8", "SSWG kV": "138", "Weather Zone": "WZ_FAR_WEST", "Settlement Zone": "LZ_WEST", "Planning Bus Long Name": "HOLTSS_8", "TSP": "ONCOR", "County": "ECTOR", "Utility EIA ID": "44372", "Zip Code": "79741", "Latitude": 32.06358, "Longitude": -102.5843 }, "geometry": { "type": "Point", "coordinates": [ -102.5843, 32.06358 ] } },
{ "type": "Feature", "properties": { "PSSE New BUS": "1144", "SSWG Bus Name": "AMNCOWD_8", "SSWG kV": "138", "Weather Zone": "WZ_FAR_WEST", "Settlement Zone": "LZ_WEST", "Planning Bus Long Name": "AMNCOWD_8", "TSP": "ONCOR", "County": "ECTOR", "Utility EIA ID": "44372", "Zip Code": "79741", "Latitude": 32.00607, "Longitude": -102.5168 }, "geometry": { "type": "Point", "coordinates": [ -102.5168, 32.00607 ] } },
{ "type": "Feature", "properties": { "PSSE New BUS": "1145", "SSWG Bus Name": "AMGLDSMI_8", "SSWG kV": "138", "Weather Zone": "WZ_FAR_WEST", "Settlement Zone": "LZ_WEST", "Planning Bus Long Name": "AMGLDSMI_8", "TSP": "ONCOR", "County": "ECTOR", "Utility EIA ID": "44372", "Zip Code": "79741", "Latitude": 31.99062, "Longitude": -102.6531 }, "geometry": { "type": "Point", "coordinates": [ -102.6531, 31.99062 ] } },
{ "type": "Feature", "properties": { "PSSE New BUS": "1146", "SSWG Bus Name": "NOTREES_SE_8", "SSWG kV": "138", "Weather Zone": "WZ_FAR_WEST", "Settlement Zone": "LZ_WEST", "Planning Bus Long Name": "APAC_TXN1_8", "TSP": "ONCOR", "County": "ECTOR", "Utility EIA ID": "44372", "Zip Code": "79745", "Latitude": 31.99763, "Longitude": -102.83351 }, "geometry": { "type": "Point", "coordinates": [ -102.83351, 31.99763 ] } },
{ "type": "Feature", "properties": { "PSSE New BUS": "1148", "SSWG Bus Name": "CHEYENNE_8", "SSWG kV": "138", "Weather Zone": "WZ_FAR_WEST", "Settlement Zone": "LZ_WEST", "Planning Bus Long Name": "CHEYENNE_8", "TSP": "ONCOR", "County": "WINKLER", "Utility EIA ID": "44372", "Zip Code": "79745", "Latitude": 31.93488, "Longitude": -103.0444 }, "geometry": { "type": "Point", "coordinates": [ -103.0444, 31.93488 ] } },
{ "type": "Feature", "properties": { "PSSE New BUS": "1149", "SSWG Bus Name": "DOLRHIDE_8", "SSWG kV": "138", "Weather Zone": "WZ_FAR_WEST", "Settlement Zone": "LZ_WEST", "Planning Bus Long Name": "DOLRHIDE_8", "TSP": "ONCOR", "County": "WINKLER", "Utility EIA ID": "44372", "Zip Code": "79714", "Latitude": 32.14772, "Longitude": -103.055 }, "geometry": { "type": "Point", "coordinates": [ -103.055, 32.14772 ] } },
{ "type": "Feature", "properties": { "PSSE New BUS": "1176", "SSWG Bus Name": "GRANDVEW_8", "SSWG kV": "138", "Weather Zone": "WZ_FAR_WEST", "Settlement Zone": "LZ_WEST", "Planning Bus Long Name": "GRANDVEW_8", "TSP": "ONCOR", "County": "ECTOR", "Utility EIA ID": "44372", "Zip Code": "79762", "Latitude": 31.9029, "Longitude": -102.355 }, "geometry": { "type": "Point", "coordinates": [ -102.355, 31.9029 ] } },
{ "type": "Feature", "properties": { "PSSE New BUS": "1180", "SSWG Bus Name": "ECTRHILL_8", "SSWG kV": "138", "Weather Zone": "WZ_FAR_WEST", "Settlement Zone": "LZ_WEST", "Planning Bus Long Name": "ECTRHILL_8", "TSP": "ONCOR", "County": "ECTOR", "Utility EIA ID": "44372", "Zip Code": "79764", "Latitude": 31.92347, "Longitude": -102.4332 }, "geometry": { "type": "Point", "coordinates": [ -102.4332, 31.92347 ] } },
{ "type": "Feature", "properties": { "PSSE New BUS": "1187", "SSWG Bus Name": "PARKSBL_8", "SSWG kV": "138", "Weather Zone": "WZ_FAR_WEST", "Settlement Zone": "LZ_WEST", "Planning Bus Long Name": "PARKSBL_8", "TSP": "ONCOR", "County": "ECTOR", "Utility EIA ID": "", "Zip Code": "79762", "Latitude": 31.93464, "Longitude": -102.31168 }, "geometry": { "type": "Point", "coordinates": [ -102.31168, 31.93464 ] } },
{ "type": "Feature", "properties": { "PSSE New BUS": "1196", "SSWG Bus Name": "CRANE_8", "SSWG kV": "138", "Weather Zone": "WZ_FAR_WEST", "Settlement Zone": "LZ_WEST", "Planning Bus Long Name": "CRANE_8", "TSP": "ONCOR", "County": "CRANE", "Utility EIA ID": "20404", "Zip Code": "79731", "Latitude": 31.41077, "Longitude": -102.3385 }, "geometry": { "type": "Point", "coordinates": [ -102.3385, 31.41077 ] } },
{ "type": "Feature", "properties": { "PSSE New BUS": "1197", "SSWG Bus Name": "CRANENORTH_9", "SSWG kV": "69", "Weather Zone": "WZ_FAR_WEST", "Settlement Zone": "LZ_WEST", "Planning Bus Long Name": "APAC_NMU1_9", "TSP": "ONCOR", "County": "CRANE", "Utility EIA ID": "20404", "Zip Code": "79731", "Latitude": 31.46196, "Longitude": -102.3518 }, "geometry": { "type": "Point", "coordinates": [ -102.3518, 31.46196 ] } },
{ "type": "Feature", "properties": { "PSSE New BUS": "1198", "SSWG Bus Name": "CRANE_9", "SSWG kV": "69", "Weather Zone": "WZ_FAR_WEST", "Settlement Zone": "LZ_WEST", "Planning Bus Long Name": "CRANE_9", "TSP": "ONCOR", "County": "CRANE", "Utility EIA ID": "20404", "Zip Code": "79731", "Latitude": 31.41077, "Longitude": -102.3385 }, "geometry": { "type": "Point", "coordinates": [ -102.3385, 31.41077 ] } },
{ "type": "Feature", "properties": { "PSSE New BUS": "1201", "SSWG Bus Name": "ARCOCRN_8", "SSWG kV": "138", "Weather Zone": "WZ_FAR_WEST", "Settlement Zone": "LZ_WEST", "Planning Bus Long Name": "ARCOCRN_8", "TSP": "ONCOR", "County": "CRANE", "Utility EIA ID": "44372", "Zip Code": "79731", "Latitude": 31.44057, "Longitude": -102.4592 }, "geometry": { "type": "Point", "coordinates": [ -102.4592, 31.44057 ] } },
{ "type": "Feature", "properties": { "PSSE New BUS": "1203", "SSWG Bus Name": "BARNSLEY_9", "SSWG kV": "69", "Weather Zone": "WZ_FAR_WEST", "Settlement Zone": "LZ_WEST", "Planning Bus Long Name": "BARNSLEY_9", "TSP": "ONCOR", "County": "CRANE", "Utility EIA ID": "44372", "Zip Code": "79731", "Latitude": 31.40638, "Longitude": -102.598 }, "geometry": { "type": "Point", "coordinates": [ -102.598, 31.40638 ] } },
{ "type": "Feature", "properties": { "PSSE New BUS": "1205", "SSWG Bus Name": "EXONJUAN_9", "SSWG kV": "69", "Weather Zone": "WZ_FAR_WEST", "Settlement Zone": "LZ_WEST", "Planning Bus Long Name": "EXONJUAN_9", "TSP": "ONCOR", "County": "CRANE", "Utility EIA ID": "44372", "Zip Code": "79731", "Latitude": 31.32573, "Longitude": -102.5631 }, "geometry": { "type": "Point", "coordinates": [ -102.5631, 31.32573 ] } },
{ "type": "Feature", "properties": { "PSSE New BUS": "1207", "SSWG Bus Name": "CRANATLC_9", "SSWG kV": "69", "Weather Zone": "WZ_FAR_WEST", "Settlement Zone": "LZ_WEST", "Planning Bus Long Name": "CRANATLC_9", "TSP": "ONCOR", "County": "CRANE", "Utility EIA ID": "44372", "Zip Code": "79731", "Latitude": 31.43199, "Longitude": -102.4377 }, "geometry": { "type": "Point", "coordinates": [ -102.4377, 31.43199 ] } },
{ "type": "Feature", "properties": { "PSSE New BUS": "1209", "SSWG Bus Name": "CENTRALIA_8", "SSWG kV": "138", "Weather Zone": "WZ_FAR_WEST", "Settlement Zone": "LZ_WEST", "Planning Bus Long Name": "CENTRALIA_8", "TSP": "ONCOR", "County": "UPTON", "Utility EIA ID": "44372", "Zip Code": "79755", "Latitude": 31.34667, "Longitude": -101.801 }, "geometry": { "type": "Point", "coordinates": [ -101.801, 31.34667 ] } },
{ "type": "Feature", "properties": { "PSSE New BUS": "1212", "SSWG Bus Name": "UPTON_8", "SSWG kV": "138", "Weather Zone": "WZ_FAR_WEST", "Settlement Zone": "LZ_WEST", "Planning Bus Long Name": "UPTON_8", "TSP": "ONCOR", "County": "UPTON", "Utility EIA ID": "44372", "Zip Code": "79755", "Latitude": 31.43841, "Longitude": -101.8849 }, "geometry": { "type": "Point", "coordinates": [ -101.8849, 31.43841 ] } },
{ "type": "Feature", "properties": { "PSSE New BUS": "1214", "SSWG Bus Name": "CRANEAST_8", "SSWG kV": "138", "Weather Zone": "WZ_FAR_WEST", "Settlement Zone": "LZ_WEST", "Planning Bus Long Name": "CRANE EAST", "TSP": "ONCOR", "County": "UPTON", "Utility EIA ID": "44372", "Zip Code": "79731", "Latitude": 31.43296, "Longitude": -102.1316 }, "geometry": { "type": "Point", "coordinates": [ -102.1316, 31.43296 ] } },
{ "type": "Feature", "properties": { "PSSE New BUS": "1215", "SSWG Bus Name": "PEMBROOK_9", "SSWG kV": "69", "Weather Zone": "WZ_FAR_WEST", "Settlement Zone": "LZ_WEST", "Planning Bus Long Name": "PEMBROOK_9", "TSP": "ONCOR", "County": "UPTON", "Utility EIA ID": "44372", "Zip Code": "79755", "Latitude": 31.56719, "Longitude": -101.8212 }, "geometry": { "type": "Point", "coordinates": [ -101.8212, 31.56719 ] } },
{ "type": "Feature", "properties": { "PSSE New BUS": "1232", "SSWG Bus Name": "CRANEHUM_9", "SSWG kV": "69", "Weather Zone": "WZ_FAR_WEST", "Settlement Zone": "LZ_WEST", "Planning Bus Long Name": "CRANEHUM_9", "TSP": "ONCOR", "County": "CRANE", "Utility EIA ID": "44372", "Zip Code": "79731", "Latitude": 31.46196, "Longitude": -102.3518 }, "geometry": { "type": "Point", "coordinates": [ -102.3518, 31.46196 ] } },
{ "type": "Feature", "properties": { "PSSE New BUS": "1238", "SSWG Bus Name": "ROYALTY_9", "SSWG kV": "69", "Weather Zone": "WZ_FAR_WEST", "Settlement Zone": "LZ_WEST", "Planning Bus Long Name": "ROYALTY_9", "TSP": "ONCOR", "County": "WARD", "Utility EIA ID": "44372", "Zip Code": "79756", "Latitude": 31.38851, "Longitude": -102.8695 }, "geometry": { "type": "Point", "coordinates": [ -102.8695, 31.38851 ] } },
{ "type": "Feature", "properties": { "PSSE New BUS": "1239", "SSWG Bus Name": "COYANOSA_9", "SSWG kV": "69", "Weather Zone": "WZ_FAR_WEST", "Settlement Zone": "LZ_WEST", "Planning Bus Long Name": "COYANOSA_9", "TSP": "ONCOR", "County": "PECOS", "Utility EIA ID": "44372", "Zip Code": "79730", "Latitude": 31.2937, "Longitude": -103.1134 }, "geometry": { "type": "Point", "coordinates": [ -103.1134, 31.2937 ] } },
{ "type": "Feature", "properties": { "PSSE New BUS": "1241", "SSWG Bus Name": "WOLFCAMP_9", "SSWG kV": "69", "Weather Zone": "WZ_FAR_WEST", "Settlement Zone": "LZ_WEST", "Planning Bus Long Name": "WOLFCAMP_9", "TSP": "ONCOR", "County": "PECOS", "Utility EIA ID": "44372", "Zip Code": "79730", "Latitude": 31.18468, "Longitude": -103.0354 }, "geometry": { "type": "Point", "coordinates": [ -103.0354, 31.18468 ] } },
{ "type": "Feature", "properties": { "PSSE New BUS": "1242", "SSWG Bus Name": "NNATURAL_9", "SSWG kV": "69", "Weather Zone": "WZ_FAR_WEST", "Settlement Zone": "LZ_WEST", "Planning Bus Long Name": "NNATURAL_9", "TSP": "ONCOR", "County": "PECOS", "Utility EIA ID": "16057", "Zip Code": "79735", "Latitude": 30.99523, "Longitude": -102.924573 }, "geometry": { "type": "Point", "coordinates": [ -102.924573, 30.99523 ] } },
{ "type": "Feature", "properties": { "PSSE New BUS": "1243", "SSWG Bus Name": "COYANOSNW_8", "SSWG kV": "138", "Weather Zone": "WZ_FAR_WEST", "Settlement Zone": "LZ_WEST", "Planning Bus Long Name": "COYANOSNW_8", "TSP": "ONCOR", "County": "PECOS", "Utility EIA ID": "44372", "Zip Code": "79743", "Latitude": 31.26291, "Longitude": -102.962 }, "geometry": { "type": "Point", "coordinates": [ -102.962, 31.26291 ] } },
{ "type": "Feature", "properties": { "PSSE New BUS": "1246", "SSWG Bus Name": "WINKBASN_9", "SSWG kV": "69", "Weather Zone": "WZ_FAR_WEST", "Settlement Zone": "LZ_WEST", "Planning Bus Long Name": "WINKBASN_9", "TSP": "ONCOR", "County": "WINKLER", "Utility EIA ID": "40051", "Zip Code": "79789", "Latitude": 31.76329, "Longitude": -103.1448 }, "geometry": { "type": "Point", "coordinates": [ -103.1448, 31.76329 ] } },
{ "type": "Feature", "properties": { "PSSE New BUS": "1249", "SSWG Bus Name": "KEYSTONE_9", "SSWG kV": "69", "Weather Zone": "WZ_FAR_WEST", "Settlement Zone": "LZ_WEST", "Planning Bus Long Name": "KEYSTONE_9", "TSP": "ONCOR", "County": "WINKLER", "Utility EIA ID": "44372", "Zip Code": "79745", "Latitude": 31.90735, "Longitude": -103.14503 }, "geometry": { "type": "Point", "coordinates": [ -103.14503, 31.90735 ] } },
{ "type": "Feature", "properties": { "PSSE New BUS": "1250", "SSWG Bus Name": "YUKONSS_8", "SSWG kV": "138", "Weather Zone": "WZ_FAR_WEST", "Settlement Zone": "LZ_WEST", "Planning Bus Long Name": "YUKONSS_8", "TSP": "ONCOR", "County": "ECTOR", "Utility EIA ID": "44372", "Zip Code": "79764", "Latitude": 31.89653, "Longitude": -102.4615 }, "geometry": { "type": "Point", "coordinates": [ -102.4615, 31.89653 ] } },
{ "type": "Feature", "properties": { "PSSE New BUS": "1251", "SSWG Bus Name": "NOTREES_SO_9", "SSWG kV": "69", "Weather Zone": "WZ_FAR_WEST", "Settlement Zone": "LZ_WEST", "Planning Bus Long Name": "APAC_TXS1_9", "TSP": "ONCOR", "County": "ECTOR", "Utility EIA ID": "44372", "Zip Code": "79745", "Latitude": 31.99765, "Longitude": -102.8336 }, "geometry": { "type": "Point", "coordinates": [ -102.8336, 31.99765 ] } },
{ "type": "Feature", "properties": { "PSSE New BUS": "1252", "SSWG Bus Name": "VEST_8", "SSWG kV": "138", "Weather Zone": "WZ_FAR_WEST", "Settlement Zone": "LZ_WEST", "Planning Bus Long Name": "VEST_9", "TSP": "ONCOR", "County": "WINKLER", "Utility EIA ID": "", "Zip Code": "79745", "Latitude": 31.76983, "Longitude": -103.0354 }, "geometry": { "type": "Point", "coordinates": [ -103.0354, 31.76983 ] } },
{ "type": "Feature", "properties": { "PSSE New BUS": "1253", "SSWG Bus Name": "MIDWAY_9", "SSWG kV": "69", "Weather Zone": "WZ_FAR_WEST", "Settlement Zone": "LZ_WEST", "Planning Bus Long Name": "MIDWAY_9", "TSP": "ONCOR", "County": "ECTOR", "Utility EIA ID": "44372", "Zip Code": "79759", "Latitude": 31.84159, "Longitude": -102.72722 }, "geometry": { "type": "Point", "coordinates": [ -102.72722, 31.84159 ] } },
{ "type": "Feature", "properties": { "PSSE New BUS": "1254", "SSWG Bus Name": "ODBASSS_9", "SSWG kV": "69", "Weather Zone": "WZ_FAR_WEST", "Settlement Zone": "LZ_WEST", "Planning Bus Long Name": "ODBASSS_9", "TSP": "ONCOR", "County": "ECTOR", "Utility EIA ID": "44372", "Zip Code": "79764", "Latitude": 31.90275, "Longitude": -102.4121 }, "geometry": { "type": "Point", "coordinates": [ -102.4121, 31.90275 ] } },
{ "type": "Feature", "properties": { "PSSE New BUS": "1255", "SSWG Bus Name": "ODESBASN_9", "SSWG kV": "69", "Weather Zone": "WZ_FAR_WEST", "Settlement Zone": "LZ_WEST", "Planning Bus Long Name": "ODESBASN_9", "TSP": "ONCOR", "County": "ECTOR", "Utility EIA ID": "44372", "Zip Code": "79764", "Latitude": 31.89757, "Longitude": -102.5669 }, "geometry": { "type": "Point", "coordinates": [ -102.5669, 31.89757 ] } },
{ "type": "Feature", "properties": { "PSSE New BUS": "1258", "SSWG Bus Name": "SANDRIDGE_9", "SSWG kV": "69", "Weather Zone": "WZ_FAR_WEST", "Settlement Zone": "LZ_WEST", "Planning Bus Long Name": "SANDRIDGE_8", "TSP": "ONCOR", "County": "ECTOR", "Utility EIA ID": "44372", "Zip Code": "79759", "Latitude": 31.85861, "Longitude": -102.6481 }, "geometry": { "type": "Point", "coordinates": [ -102.6481, 31.85861 ] } },
{ "type": "Feature", "properties": { "PSSE New BUS": "1268", "SSWG Bus Name": "GOLDSGULF1_8", "SSWG kV": "138", "Weather Zone": "WZ_FAR_WEST", "Settlement Zone": "LZ_WEST", "Planning Bus Long Name": "GOLDSGULF1_8", "TSP": "ONCOR", "County": "ECTOR", "Utility EIA ID": "44372", "Zip Code": "79741", "Latitude": 31.97365, "Longitude": -102.636 }, "geometry": { "type": "Point", "coordinates": [ -102.636, 31.97365 ] } },
{ "type": "Feature", "properties": { "PSSE New BUS": "1292", "SSWG Bus Name": "ECTRHARP_8", "SSWG kV": "138", "Weather Zone": "WZ_FAR_WEST", "Settlement Zone": "LZ_WEST", "Planning Bus Long Name": "ECTRHARP_8", "TSP": "ONCOR", "County": "ECTOR", "Utility EIA ID": "44372", "Zip Code": "79763", "Latitude": 31.79839, "Longitude": -102.52833 }, "geometry": { "type": "Point", "coordinates": [ -102.52833, 31.79839 ] } },
{ "type": "Feature", "properties": { "PSSE New BUS": "1296", "SSWG Bus Name": "NORTHWRD_9", "SSWG kV": "69", "Weather Zone": "WZ_FAR_WEST", "Settlement Zone": "LZ_WEST", "Planning Bus Long Name": "NORTHWRD_9", "TSP": "ONCOR", "County": "WARD", "Utility EIA ID": "44372", "Zip Code": "79754", "Latitude": 31.70429, "Longitude": -103.476 }, "geometry": { "type": "Point", "coordinates": [ -103.476, 31.70429 ] } },
{ "type": "Feature", "properties": { "PSSE New BUS": "6021", "SSWG Bus Name": "ENRWP4", "SSWG kV": "138", "Weather Zone": "WZ_FAR_WEST", "Settlement Zone": "LZ_WEST", "Planning Bus Long Name": "DESERT SKY I (FORMERLY ENRON AND INDIAN MESA POWER", "TSP": "AEP", "County": "PECOS", "Utility EIA ID": "17693", "Zip Code": "79744", "Latitude": 30.91601, "Longitude": -102.1097 }, "geometry": { "type": "Point", "coordinates": [ -102.1097, 30.91601 ] } },
{ "type": "Feature", "properties": { "PSSE New BUS": "6545", "SSWG Bus Name": "POWELLFI2A", "SSWG kV": "69", "Weather Zone": "WZ_FAR_WEST", "Settlement Zone": "LZ_WEST", "Planning Bus Long Name": "POWELL FIELD", "TSP": "AEP", "County": "CROCKETT", "Utility EIA ID": "20404", "Zip Code": "76932", "Latitude": 31.0225, "Longitude": -101.5849 }, "geometry": { "type": "Point", "coordinates": [ -101.5849, 31.0225 ] } },
{ "type": "Feature", "properties": { "PSSE New BUS": "6547", "SSWG Bus Name": "STRS2A", "SSWG kV": "69", "Weather Zone": "WZ_FAR_WEST", "Settlement Zone": "LZ_WEST", "Planning Bus Long Name": "SWTEC STRAUSS RANCH", "TSP": "AEP", "County": "CROCKETT", "Utility EIA ID": "20404", "Zip Code": "76932", "Latitude": 31.06014, "Longitude": -101.4612 }, "geometry": { "type": "Point", "coordinates": [ -101.4612, 31.06014 ] } },
{ "type": "Feature", "properties": { "PSSE New BUS": "6549", "SSWG Bus Name": "MIDW2A", "SSWG kV": "69", "Weather Zone": "WZ_FAR_WEST", "Settlement Zone": "LZ_WEST", "Planning Bus Long Name": "MIDWAY LANE", "TSP": "AEP", "County": "CROCKETT", "Utility EIA ID": "", "Zip Code": "76943", "Latitude": 30.90886, "Longitude": -101.3788 }, "geometry": { "type": "Point", "coordinates": [ -101.3788, 30.90886 ] } },
{ "type": "Feature", "properties": { "PSSE New BUS": "6552", "SSWG Bus Name": "OZNC2A", "SSWG kV": "69", "Weather Zone": "WZ_FAR_WEST", "Settlement Zone": "LZ_WEST", "Planning Bus Long Name": "CROCKETT HEIGHTS", "TSP": "AEP", "County": "CROCKETT", "Utility EIA ID": "20404", "Zip Code": "76943", "Latitude": 30.7081, "Longitude": -101.1432 }, "geometry": { "type": "Point", "coordinates": [ -101.1432, 30.7081 ] } },
{ "type": "Feature", "properties": { "PSSE New BUS": "6560", "SSWG Bus Name": "OZONA2A", "SSWG kV": "69", "Weather Zone": "WZ_FAR_WEST", "Settlement Zone": "LZ_WEST", "Planning Bus Long Name": "OZONA", "TSP": "AEP", "County": "CROCKETT", "Utility EIA ID": "20404", "Zip Code": "76943", "Latitude": 30.71921, "Longitude": -101.1998 }, "geometry": { "type": "Point", "coordinates": [ -101.1998, 30.71921 ] } },
{ "type": "Feature", "properties": { "PSSE New BUS": "6564", "SSWG Bus Name": "ILLN4A", "SSWG kV": "138", "Weather Zone": "WZ_FAR_WEST", "Settlement Zone": "LZ_WEST", "Planning Bus Long Name": "ILLINOIS #4", "TSP": "AEP", "County": "CROCKETT", "Utility EIA ID": "20404", "Zip Code": "79781", "Latitude": 30.55457, "Longitude": -101.5356 }, "geometry": { "type": "Point", "coordinates": [ -101.5356, 30.55457 ] } },
{ "type": "Feature", "properties": { "PSSE New BUS": "6565", "SSWG Bus Name": "ILLN2A", "SSWG kV": "69", "Weather Zone": "WZ_FAR_WEST", "Settlement Zone": "LZ_WEST", "Planning Bus Long Name": "ILLINOIS #4", "TSP": "AEP", "County": "CROCKETT", "Utility EIA ID": "20404", "Zip Code": "79781", "Latitude": 30.72511, "Longitude": -101.8155 }, "geometry": { "type": "Point", "coordinates": [ -101.8155, 30.72511 ] } },
{ "type": "Feature", "properties": { "PSSE New BUS": "6567", "SSWG Bus Name": "PANDALE2A", "SSWG kV": "69", "Weather Zone": "WZ_FAR_WEST", "Settlement Zone": "LZ_WEST", "Planning Bus Long Name": "PANDALE", "TSP": "AEP", "County": "CROCKETT", "Utility EIA ID": "20404", "Zip Code": "76943", "Latitude": 30.46512, "Longitude": -101.4687 }, "geometry": { "type": "Point", "coordinates": [ -101.4687, 30.46512 ] } },
{ "type": "Feature", "properties": { "PSSE New BUS": "6572", "SSWG Bus Name": "MARATHON2A", "SSWG kV": "69", "Weather Zone": "WZ_FAR_WEST", "Settlement Zone": "LZ_WEST", "Planning Bus Long Name": "MARATHON YATES", "TSP": "AEP", "County": "PECOS", "Utility EIA ID": "17693", "Zip Code": "79744", "Latitude": 30.88404, "Longitude": -101.9204 }, "geometry": { "type": "Point", "coordinates": [ -101.9204, 30.88404 ] } },
{ "type": "Feature", "properties": { "PSSE New BUS": "6575", "SSWG Bus Name": "IRAN2A", "SSWG kV": "69", "Weather Zone": "WZ_FAR_WEST", "Settlement Zone": "LZ_WEST", "Planning Bus Long Name": "IRAAN", "TSP": "AEP", "County": "PECOS", "Utility EIA ID": "17693", "Zip Code": "79744", "Latitude": 30.91049, "Longitude": -101.8998 }, "geometry": { "type": "Point", "coordinates": [ -101.8998, 30.91049 ] } },
{ "type": "Feature", "properties": { "PSSE New BUS": "6577", "SSWG Bus Name": "SHEFFIEL2A", "SSWG kV": "69", "Weather Zone": "WZ_FAR_WEST", "Settlement Zone": "LZ_WEST", "Planning Bus Long Name": "SHEFFIELD", "TSP": "AEP", "County": "PECOS", "Utility EIA ID": "20404", "Zip Code": "79781", "Latitude": 30.72511, "Longitude": -101.8155 }, "geometry": { "type": "Point", "coordinates": [ -101.8155, 30.72511 ] } },
{ "type": "Feature", "properties": { "PSSE New BUS": "6578", "SSWG Bus Name": "FTLN2A", "SSWG kV": "69", "Weather Zone": "WZ_FAR_WEST", "Settlement Zone": "LZ_WEST", "Planning Bus Long Name": "FORT LANCASTER", "TSP": "AEP", "County": "PECOS", "Utility EIA ID": "20404", "Zip Code": "79781", "Latitude": 30.66353, "Longitude": -101.7786 }, "geometry": { "type": "Point", "coordinates": [ -101.7786, 30.66353 ] } },
{ "type": "Feature", "properties": { "PSSE New BUS": "6579", "SSWG Bus Name": "CACTUS2A", "SSWG kV": "69", "Weather Zone": "WZ_FAR_WEST", "Settlement Zone": "LZ_WEST", "Planning Bus Long Name": "CACTUS", "TSP": "AEP", "County": "CROCKETT", "Utility EIA ID": "17693", "Zip Code": "79744", "Latitude": 30.89369, "Longitude": -101.8936 }, "geometry": { "type": "Point", "coordinates": [ -101.8936, 30.89369 ] } },
{ "type": "Feature", "properties": { "PSSE New BUS": "6580", "SSWG Bus Name": "AIRP2A", "SSWG kV": "69", "Weather Zone": "WZ_FAR_WEST", "Settlement Zone": "LZ_WEST", "Planning Bus Long Name": "AIR PRODUCTS", "TSP": "AEP", "County": "CROCKETT", "Utility EIA ID": "17693", "Zip Code": "79744", "Latitude": 30.9224, "Longitude": -101.9325 }, "geometry": { "type": "Point", "coordinates": [ -101.9325, 30.9224 ] } },
{ "type": "Feature", "properties": { "PSSE New BUS": "6582", "SSWG Bus Name": "PECOSRVR2A", "SSWG kV": "69", "Weather Zone": "WZ_FAR_WEST", "Settlement Zone": "LZ_WEST", "Planning Bus Long Name": "PECOS RIVER", "TSP": "AEP", "County": "CROCKETT", "Utility EIA ID": "17693", "Zip Code": "79744", "Latitude": 30.7872, "Longitude": -101.8183 }, "geometry": { "type": "Point", "coordinates": [ -101.8183, 30.7872 ] } },
{ "type": "Feature", "properties": { "PSSE New BUS": "6583", "SSWG Bus Name": "MESAVIEW4A", "SSWG kV": "138", "Weather Zone": "WZ_FAR_WEST", "Settlement Zone": "LZ_WEST", "Planning Bus Long Name": "MESA VIEW", "TSP": "AEP", "County": "CROCKETT", "Utility EIA ID": "17693", "Zip Code": "79744", "Latitude": 30.82465, "Longitude": -102.0324 }, "geometry": { "type": "Point", "coordinates": [ -102.0324, 30.82465 ] } },
{ "type": "Feature", "properties": { "PSSE New BUS": "6584", "SSWG Bus Name": "INDN4A", "SSWG kV": "138", "Weather Zone": "WZ_FAR_WEST", "Settlement Zone": "LZ_WEST", "Planning Bus Long Name": "INDIAN MESA", "TSP": "AEP", "County": "PECOS", "Utility EIA ID": "17693", "Zip Code": "79744", "Latitude": 30.91614, "Longitude": -102.1098 }, "geometry": { "type": "Point", "coordinates": [ -102.1098, 30.91614 ] } },
{ "type": "Feature", "properties": { "PSSE New BUS": "6585", "SSWG Bus Name": "DISCOVER2A", "SSWG kV": "69", "Weather Zone": "WZ_FAR_WEST", "Settlement Zone": "LZ_WEST", "Planning Bus Long Name": "DISCOVERY", "TSP": "AEP", "County": "PECOS", "Utility EIA ID": "17693", "Zip Code": "79744", "Latitude": 30.91299, "Longitude": -101.9435 }, "geometry": { "type": "Point", "coordinates": [ -101.9435, 30.91299 ] } },
{ "type": "Feature", "properties": { "PSSE New BUS": "6586", "SSWG Bus Name": "MCCAMY4", "SSWG kV": "138", "Weather Zone": "WZ_FAR_WEST", "Settlement Zone": "LZ_WEST", "Planning Bus Long Name": "MCCAMEY", "TSP": "AEP", "County": "UPTON", "Utility EIA ID": "20404", "Zip Code": "79752", "Latitude": 31.13724, "Longitude": -102.2033 }, "geometry": { "type": "Point", "coordinates": [ -102.2033, 31.13724 ] } },
{ "type": "Feature", "properties": { "PSSE New BUS": "6587", "SSWG Bus Name": "STHCROSS2A", "SSWG kV": "69", "Weather Zone": "WZ_FAR_WEST", "Settlement Zone": "LZ_WEST", "Planning Bus Long Name": "SOUTH CROSS", "TSP": "AEP", "County": "PECOS", "Utility EIA ID": "16057", "Zip Code": "79735", "Latitude": 31.06849, "Longitude": -102.285 }, "geometry": { "type": "Point", "coordinates": [ -102.285, 31.06849 ] } },
{ "type": "Feature", "properties": { "PSSE New BUS": "6588", "SSWG Bus Name": "SHELLMES2A", "SSWG kV": "69", "Weather Zone": "WZ_FAR_WEST", "Settlement Zone": "LZ_WEST", "Planning Bus Long Name": "MCCAMEY SHELL MESA", "TSP": "AEP", "County": "UPTON", "Utility EIA ID": "20404", "Zip Code": "79752", "Latitude": 31.10202, "Longitude": -102.1299 }, "geometry": { "type": "Point", "coordinates": [ -102.1299, 31.10202 ] } },
{ "type": "Feature", "properties": { "PSSE New BUS": "6589", "SSWG Bus Name": "RANKIN42A", "SSWG kV": "69", "Weather Zone": "WZ_FAR_WEST", "Settlement Zone": "LZ_WEST", "Planning Bus Long Name": "RANKIN 12 KV SUB", "TSP": "AEP", "County": "UPTON", "Utility EIA ID": "20404", "Zip Code": "79778", "Latitude": 31.21792, "Longitude": -101.9375 }, "geometry": { "type": "Point", "coordinates": [ -101.9375, 31.21792 ] } },
{ "type": "Feature", "properties": { "PSSE New BUS": "6591", "SSWG Bus Name": "RANKIN2A", "SSWG kV": "69", "Weather Zone": "WZ_FAR_WEST", "Settlement Zone": "LZ_WEST", "Planning Bus Long Name": "RANKIN 4KV SUB", "TSP": "AEP", "County": "UPTON", "Utility EIA ID": "20404", "Zip Code": "79778", "Latitude": 31.21792, "Longitude": -101.9375 }, "geometry": { "type": "Point", "coordinates": [ -101.9375, 31.21792 ] } },
{ "type": "Feature", "properties": { "PSSE New BUS": "6592", "SSWG Bus Name": "MCAM2A", "SSWG kV": "69", "Weather Zone": "WZ_FAR_WEST", "Settlement Zone": "LZ_WEST", "Planning Bus Long Name": "MCCAMEY", "TSP": "AEP", "County": "UPTON", "Utility EIA ID": "20404", "Zip Code": "79752", "Latitude": 31.13724, "Longitude": -102.2033 }, "geometry": { "type": "Point", "coordinates": [ -102.2033, 31.13724 ] } },
{ "type": "Feature", "properties": { "PSSE New BUS": "6597", "SSWG Bus Name": "BOBCAT2A", "SSWG kV": "69", "Weather Zone": "WZ_FAR_WEST", "Settlement Zone": "LZ_WEST", "Planning Bus Long Name": "BOBCAT HILLS", "TSP": "AEP", "County": "PECOS", "Utility EIA ID": "20404", "Zip Code": "79752", "Latitude": 31.10501, "Longitude": -102.2966 }, "geometry": { "type": "Point", "coordinates": [ -102.2966, 31.10501 ] } },
{ "type": "Feature", "properties": { "PSSE New BUS": "6598", "SSWG Bus Name": "RIOP2A", "SSWG kV": "69", "Weather Zone": "WZ_FAR_WEST", "Settlement Zone": "LZ_WEST", "Planning Bus Long Name": "RIO PECOS", "TSP": "AEP", "County": "PECOS", "Utility EIA ID": "40051", "Zip Code": "79740", "Latitude": 31.08459, "Longitude": -102.3655 }, "geometry": { "type": "Point", "coordinates": [ -102.3655, 31.08459 ] } },
{ "type": "Feature", "properties": { "PSSE New BUS": "6601", "SSWG Bus Name": "RIOPECOS4A", "SSWG kV": "138", "Weather Zone": "WZ_FAR_WEST", "Settlement Zone": "LZ_WEST", "Planning Bus Long Name": "RIO PECOS", "TSP": "AEP", "County": "PECOS", "Utility EIA ID": "40051", "Zip Code": "79740", "Latitude": 31.08459, "Longitude": -102.3655 }, "geometry": { "type": "Point", "coordinates": [ -102.3655, 31.08459 ] } },
{ "type": "Feature", "properties": { "PSSE New BUS": "6604", "SSWG Bus Name": "SAGE2A", "SSWG kV": "69", "Weather Zone": "WZ_FAR_WEST", "Settlement Zone": "LZ_WEST", "Planning Bus Long Name": "SAGE", "TSP": "AEP", "County": "CRANE", "Utility EIA ID": "44372", "Zip Code": "79731", "Latitude": 31.424, "Longitude": -102.3415 }, "geometry": { "type": "Point", "coordinates": [ -102.3415, 31.424 ] } },
{ "type": "Feature", "properties": { "PSSE New BUS": "6605", "SSWG Bus Name": "CRAN_AIR2A", "SSWG kV": "69", "Weather Zone": "WZ_FAR_WEST", "Settlement Zone": "LZ_WEST", "Planning Bus Long Name": "CRANE COUNTY AIRPORT", "TSP": "AEP", "County": "CRANE", "Utility EIA ID": "20404", "Zip Code": "79731", "Latitude": 31.40984, "Longitude": -102.3386 }, "geometry": { "type": "Point", "coordinates": [ -102.3386, 31.40984 ] } },
{ "type": "Feature", "properties": { "PSSE New BUS": "6606", "SSWG Bus Name": "TNMP2A", "SSWG kV": "69", "Weather Zone": "WZ_FAR_WEST", "Settlement Zone": "LZ_WEST", "Planning Bus Long Name": "TEXAS NEW MEXICO PIPELINE", "TSP": "AEP", "County": "CRANE", "Utility EIA ID": "44372", "Zip Code": "79731", "Latitude": 31.432, "Longitude": -102.4377 }, "geometry": { "type": "Point", "coordinates": [ -102.4377, 31.432 ] } },
{ "type": "Feature", "properties": { "PSSE New BUS": "6607", "SSWG Bus Name": "MCELROY2A", "SSWG kV": "69", "Weather Zone": "WZ_FAR_WEST", "Settlement Zone": "LZ_WEST", "Planning Bus Long Name": "CRANE MCELROY", "TSP": "AEP", "County": "CRANE", "Utility EIA ID": "20404", "Zip Code": "79731", "Latitude": 31.41087, "Longitude": -102.3373 }, "geometry": { "type": "Point", "coordinates": [ -102.3373, 31.41087 ] } },
{ "type": "Feature", "properties": { "PSSE New BUS": "6611", "SSWG Bus Name": "DUNEFIEL2A", "SSWG kV": "69", "Weather Zone": "WZ_FAR_WEST", "Settlement Zone": "LZ_WEST", "Planning Bus Long Name": "DUNE FIELD", "TSP": "AEP", "County": "CRANE", "Utility EIA ID": "20404", "Zip Code": "79731", "Latitude": 31.54562, "Longitude": -102.4507 }, "geometry": { "type": "Point", "coordinates": [ -102.4507, 31.54562 ] } },
{ "type": "Feature", "properties": { "PSSE New BUS": "6613", "SSWG Bus Name": "CRAN2A", "SSWG kV": "69", "Weather Zone": "WZ_FAR_WEST", "Settlement Zone": "LZ_WEST", "Planning Bus Long Name": "CRANE", "TSP": "AEP", "County": "CRANE", "Utility EIA ID": "20404", "Zip Code": "79731", "Latitude": 31.41077, "Longitude": -102.3385 }, "geometry": { "type": "Point", "coordinates": [ -102.3385, 31.41077 ] } },
{ "type": "Feature", "properties": { "PSSE New BUS": "6615", "SSWG Bus Name": "WTUCRAN4", "SSWG kV": "138", "Weather Zone": "WZ_FAR_WEST", "Settlement Zone": "LZ_WEST", "Planning Bus Long Name": "CRANE", "TSP": "AEP", "County": "CRANE", "Utility EIA ID": "20404", "Zip Code": "79731", "Latitude": 31.41077, "Longitude": -102.3385 }, "geometry": { "type": "Point", "coordinates": [ -102.3385, 31.41077 ] } },
{ "type": "Feature", "properties": { "PSSE New BUS": "6628", "SSWG Bus Name": "FTST2A", "SSWG kV": "69", "Weather Zone": "WZ_FAR_WEST", "Settlement Zone": "LZ_WEST", "Planning Bus Long Name": "FORT STOCKTON PLANT", "TSP": "AEP", "County": "PECOS", "Utility EIA ID": "16057", "Zip Code": "79735", "Latitude": 30.92743, "Longitude": -102.9555 }, "geometry": { "type": "Point", "coordinates": [ -102.9555, 30.92743 ] } },
{ "type": "Feature", "properties": { "PSSE New BUS": "6630", "SSWG Bus Name": "FTST4A", "SSWG kV": "138", "Weather Zone": "WZ_FAR_WEST", "Settlement Zone": "LZ_WEST", "Planning Bus Long Name": "FORT STOCKTON PLANT", "TSP": "AEP", "County": "PECOS", "Utility EIA ID": "16057", "Zip Code": "79735", "Latitude": 30.92743, "Longitude": -102.9555 }, "geometry": { "type": "Point", "coordinates": [ -102.9555, 30.92743 ] } },
{ "type": "Feature", "properties": { "PSSE New BUS": "6639", "SSWG Bus Name": "MCAN4A", "SSWG kV": "138", "Weather Zone": "WZ_FAR_WEST", "Settlement Zone": "LZ_WEST", "Planning Bus Long Name": "NORTH MCCAMEY 138", "TSP": "AEP", "County": "UPTON", "Utility EIA ID": "20404", "Zip Code": "79752", "Latitude": 31.15371, "Longitude": -102.2233 }, "geometry": { "type": "Point", "coordinates": [ -102.2233, 31.15371 ] } },
{ "type": "Feature", "properties": { "PSSE New BUS": "6640", "SSWG Bus Name": "CASTLGAP4A", "SSWG kV": "138", "Weather Zone": "WZ_FAR_WEST", "Settlement Zone": "LZ_WEST", "Planning Bus Long Name": "CASTLE GAP", "TSP": "AEP", "County": "UPTON", "Utility EIA ID": "20404", "Zip Code": "79752", "Latitude": 31.30715, "Longitude": -102.2733 }, "geometry": { "type": "Point", "coordinates": [ -102.2733, 31.30715 ] } },
{ "type": "Feature", "properties": { "PSSE New BUS": "6641", "SSWG Bus Name": "SUNV2A", "SSWG kV": "69", "Weather Zone": "WZ_FAR_WEST", "Settlement Zone": "LZ_WEST", "Planning Bus Long Name": "SUN VALLEY SUB (SWTEC)", "TSP": "AEP", "County": "PECOS", "Utility EIA ID": "20404", "Zip Code": "79743", "Latitude": 31.09559, "Longitude": -102.5232 }, "geometry": { "type": "Point", "coordinates": [ -102.5232, 31.09559 ] } },
{ "type": "Feature", "properties": { "PSSE New BUS": "6642", "SSWG Bus Name": "MAST2A", "SSWG kV": "69", "Weather Zone": "WZ_FAR_WEST", "Settlement Zone": "LZ_WEST", "Planning Bus Long Name": "MASTERSON FIELD", "TSP": "AEP", "County": "PECOS", "Utility EIA ID": "20404", "Zip Code": "79743", "Latitude": 31.10652, "Longitude": -102.6442 }, "geometry": { "type": "Point", "coordinates": [ -102.6442, 31.10652 ] } },
{ "type": "Feature", "properties": { "PSSE New BUS": "6643", "SSWG Bus Name": "PECV2A", "SSWG kV": "69", "Weather Zone": "WZ_FAR_WEST", "Settlement Zone": "LZ_WEST", "Planning Bus Long Name": "PECOS VALLEY", "TSP": "AEP", "County": "PECOS", "Utility EIA ID": "44372", "Zip Code": "79772", "Latitude": 31.09689, "Longitude": -102.7948 }, "geometry": { "type": "Point", "coordinates": [ -102.7948, 31.09689 ] } },
{ "type": "Feature", "properties": { "PSSE New BUS": "6645", "SSWG Bus Name": "FTSW2A", "SSWG kV": "69", "Weather Zone": "WZ_FAR_WEST", "Settlement Zone": "LZ_WEST", "Planning Bus Long Name": "RGEC FT STOCKTON SWITCHING STATION", "TSP": "AEP", "County": "REEVES", "Utility EIA ID": "16057", "Zip Code": "79735", "Latitude": 31.01675, "Longitude": -103.1029 }, "geometry": { "type": "Point", "coordinates": [ -103.1029, 31.01675 ] } },
{ "type": "Feature", "properties": { "PSSE New BUS": "6649", "SSWG Bus Name": "VERH2A", "SSWG kV": "69", "Weather Zone": "WZ_FAR_WEST", "Settlement Zone": "LZ_WEST", "Planning Bus Long Name": "VERHALEN", "TSP": "AEP", "County": "REEVES", "Utility EIA ID": "44372", "Zip Code": "79772", "Latitude": 31.14456, "Longitude": -103.59 }, "geometry": { "type": "Point", "coordinates": [ -103.59, 31.14456 ] } },
{ "type": "Feature", "properties": { "PSSE New BUS": "6651", "SSWG Bus Name": "CHERRYCR2A", "SSWG kV": "69", "Weather Zone": "WZ_FAR_WEST", "Settlement Zone": "LZ_WEST", "Planning Bus Long Name": "CHERRY CREEK", "TSP": "AEP", "County": "REEVES", "Utility EIA ID": "44372", "Zip Code": "79772", "Latitude": 31.10179, "Longitude": -103.5999 }, "geometry": { "type": "Point", "coordinates": [ -103.5999, 31.10179 ] } },
{ "type": "Feature", "properties": { "PSSE New BUS": "6652", "SSWG Bus Name": "SGSA2A", "SSWG kV": "69", "Weather Zone": "WZ_FAR_WEST", "Settlement Zone": "LZ_WEST", "Planning Bus Long Name": "SARAGOSA", "TSP": "AEP", "County": "REEVES", "Utility EIA ID": "20404", "Zip Code": "79780", "Latitude": 31.04226, "Longitude": -103.6539 }, "geometry": { "type": "Point", "coordinates": [ -103.6539, 31.04226 ] } },
{ "type": "Feature", "properties": { "PSSE New BUS": "6653", "SSWG Bus Name": "BARL2A", "SSWG kV": "69", "Weather Zone": "WZ_FAR_WEST", "Settlement Zone": "LZ_WEST", "Planning Bus Long Name": "BARRILLA JUNCTION", "TSP": "AEP", "County": "PECOS", "Utility EIA ID": "3278", "Zip Code": "79735", "Latitude": 30.94718, "Longitude": -103.36534 }, "geometry": { "type": "Point", "coordinates": [ -103.36534, 30.94718 ] } },
{ "type": "Feature", "properties": { "PSSE New BUS": "6654", "SSWG Bus Name": "HOEFSROA2A", "SSWG kV": "69", "Weather Zone": "WZ_FAR_WEST", "Settlement Zone": "LZ_WEST", "Planning Bus Long Name": "HOEFS ROAD", "TSP": "AEP", "County": "REEVES", "Utility EIA ID": "20404", "Zip Code": "79780", "Latitude": 31.0061, "Longitude": -103.4865 }, "geometry": { "type": "Point", "coordinates": [ -103.4865, 31.0061 ] } },
{ "type": "Feature", "properties": { "PSSE New BUS": "6655", "SSWG Bus Name": "BARL4A", "SSWG kV": "138", "Weather Zone": "WZ_FAR_WEST", "Settlement Zone": "LZ_WEST", "Planning Bus Long Name": "BARRILLA JUNCTION", "TSP": "AEP", "County": "PECOS", "Utility EIA ID": "3278", "Zip Code": "79735", "Latitude": 30.94718, "Longitude": -103.36534 }, "geometry": { "type": "Point", "coordinates": [ -103.36534, 30.94718 ] } },
{ "type": "Feature", "properties": { "PSSE New BUS": "6665", "SSWG Bus Name": "ALPR2A", "SSWG kV": "69", "Weather Zone": "WZ_FAR_WEST", "Settlement Zone": "LZ_WEST", "Planning Bus Long Name": "RGEC ALPINE", "TSP": "AEP", "County": "BREWSTER", "Utility EIA ID": "20404", "Zip Code": "79831", "Latitude": 30.38948, "Longitude": -103.5248 }, "geometry": { "type": "Point", "coordinates": [ -103.5248, 30.38948 ] } },
{ "type": "Feature", "properties": { "PSSE New BUS": "6666", "SSWG Bus Name": "ALPINE2A", "SSWG kV": "69", "Weather Zone": "WZ_FAR_WEST", "Settlement Zone": "LZ_WEST", "Planning Bus Long Name": "ALPINE", "TSP": "AEP", "County": "BREWSTER", "Utility EIA ID": "20404", "Zip Code": "79830", "Latitude": 30.35556, "Longitude": -103.6633 }, "geometry": { "type": "Point", "coordinates": [ -103.6633, 30.35556 ] } },
{ "type": "Feature", "properties": { "PSSE New BUS": "6667", "SSWG Bus Name": "PAIS2A", "SSWG kV": "69", "Weather Zone": "WZ_FAR_WEST", "Settlement Zone": "LZ_WEST", "Planning Bus Long Name": "PAISANO", "TSP": "AEP", "County": "PRESIDIO", "Utility EIA ID": "20404", "Zip Code": "79830", "Latitude": 30.30702, "Longitude": -103.8017 }, "geometry": { "type": "Point", "coordinates": [ -103.8017, 30.30702 ] } },
{ "type": "Feature", "properties": { "PSSE New BUS": "6672", "SSWG Bus Name": "ALMC2B", "SSWG kV": "69", "Weather Zone": "WZ_FAR_WEST", "Settlement Zone": "LZ_WEST", "Planning Bus Long Name": "ALAMITO", "TSP": "AEP", "County": "PRESIDIO", "Utility EIA ID": "20404", "Zip Code": "79843", "Latitude": 30.31626, "Longitude": -104.0088 }, "geometry": { "type": "Point", "coordinates": [ -104.0088, 30.31626 ] } },
{ "type": "Feature", "properties": { "PSSE New BUS": "6673", "SSWG Bus Name": "MUSQUIZ4A", "SSWG kV": "138", "Weather Zone": "WZ_FAR_WEST", "Settlement Zone": "LZ_WEST", "Planning Bus Long Name": "MUSQUIZ", "TSP": "AEP", "County": "REEVES", "Utility EIA ID": "40051", "Zip Code": "79772", "Latitude": 31.23844, "Longitude": -103.1583 }, "geometry": { "type": "Point", "coordinates": [ -103.1583, 31.23844 ] } },
{ "type": "Feature", "properties": { "PSSE New BUS": "6674", "SSWG Bus Name": "BRONCO2A", "SSWG kV": "69", "Weather Zone": "WZ_FAR_WEST", "Settlement Zone": "LZ_WEST", "Planning Bus Long Name": "BRONCO", "TSP": "AEP", "County": "BREWSTER", "Utility EIA ID": "20404", "Zip Code": "79831", "Latitude": 30.38953, "Longitude": -103.5248 }, "geometry": { "type": "Point", "coordinates": [ -103.5248, 30.38953 ] } },
{ "type": "Feature", "properties": { "PSSE New BUS": "6675", "SSWG Bus Name": "GONZALES2A", "SSWG kV": "69", "Weather Zone": "WZ_FAR_WEST", "Settlement Zone": "LZ_WEST", "Planning Bus Long Name": "GONZALES", "TSP": "AEP", "County": "PRESIDIO", "Utility EIA ID": "19806", "Zip Code": "79845", "Latitude": 29.56629, "Longitude": -104.3559 }, "geometry": { "type": "Point", "coordinates": [ -104.3559, 29.56629 ] } },
{ "type": "Feature", "properties": { "PSSE New BUS": "6676", "SSWG Bus Name": "FORTDAVI2A", "SSWG kV": "69", "Weather Zone": "WZ_FAR_WEST", "Settlement Zone": "LZ_WEST", "Planning Bus Long Name": "FORT DAVIS", "TSP": "AEP", "County": "JEFF DAVIS", "Utility EIA ID": "20404", "Zip Code": "79734", "Latitude": 30.58524, "Longitude": -103.8985 }, "geometry": { "type": "Point", "coordinates": [ -103.8985, 30.58524 ] } },
{ "type": "Feature", "properties": { "PSSE New BUS": "6678", "SSWG Bus Name": "ALMC2A", "SSWG kV": "69", "Weather Zone": "WZ_FAR_WEST", "Settlement Zone": "LZ_WEST", "Planning Bus Long Name": "ALAMITO", "TSP": "AEP", "County": "PRESIDIO", "Utility EIA ID": "20404", "Zip Code": "79843", "Latitude": 30.31626, "Longitude": -104.0088 }, "geometry": { "type": "Point", "coordinates": [ -104.0088, 30.31626 ] } },
{ "type": "Feature", "properties": { "PSSE New BUS": "6680", "SSWG Bus Name": "ALMC4A", "SSWG kV": "138", "Weather Zone": "WZ_FAR_WEST", "Settlement Zone": "LZ_WEST", "Planning Bus Long Name": "ALAMITO", "TSP": "AEP", "County": "PRESIDIO", "Utility EIA ID": "20404", "Zip Code": "79843", "Latitude": 30.31626, "Longitude": -104.0088 }, "geometry": { "type": "Point", "coordinates": [ -104.0088, 30.31626 ] } },
{ "type": "Feature", "properties": { "PSSE New BUS": "6681", "SSWG Bus Name": "MARFA2A", "SSWG kV": "69", "Weather Zone": "WZ_FAR_WEST", "Settlement Zone": "LZ_WEST", "Planning Bus Long Name": "MARFA", "TSP": "AEP", "County": "PRESIDIO", "Utility EIA ID": "20404", "Zip Code": "79843", "Latitude": 30.31627, "Longitude": -104.00867 }, "geometry": { "type": "Point", "coordinates": [ -104.00867, 30.31627 ] } },
{ "type": "Feature", "properties": { "PSSE New BUS": "6682", "SSWG Bus Name": "CIEN2A", "SSWG kV": "69", "Weather Zone": "WZ_FAR_WEST", "Settlement Zone": "LZ_WEST", "Planning Bus Long Name": "RGEC CIENEGA", "TSP": "AEP", "County": "PRESIDIO", "Utility EIA ID": "20404", "Zip Code": "79843", "Latitude": 30.02529, "Longitude": -104.196 }, "geometry": { "type": "Point", "coordinates": [ -104.196, 30.02529 ] } },
{ "type": "Feature", "properties": { "PSSE New BUS": "6683", "SSWG Bus Name": "SHAF2A", "SSWG kV": "69", "Weather Zone": "WZ_FAR_WEST", "Settlement Zone": "LZ_WEST", "Planning Bus Long Name": "SHAFTER GOLDMINE", "TSP": "AEP", "County": "PRESIDIO", "Utility EIA ID": "20404", "Zip Code": "79843", "Latitude": 29.82155, "Longitude": -104.325 }, "geometry": { "type": "Point", "coordinates": [ -104.325, 29.82155 ] } },
{ "type": "Feature", "properties": { "PSSE New BUS": "6689", "SSWG Bus Name": "BRYR2A", "SSWG kV": "69", "Weather Zone": "WZ_FAR_WEST", "Settlement Zone": "LZ_WEST", "Planning Bus Long Name": "BRYANT'S RANCH", "TSP": "AEP", "County": "PRESIDIO", "Utility EIA ID": "20404", "Zip Code": "79843", "Latitude": 30.02514, "Longitude": -104.196 }, "geometry": { "type": "Point", "coordinates": [ -104.196, 30.02514 ] } },
{ "type": "Feature", "properties": { "PSSE New BUS": "6691", "SSWG Bus Name": "ESPY2A", "SSWG kV": "69", "Weather Zone": "WZ_FAR_WEST", "Settlement Zone": "LZ_WEST", "Planning Bus Long Name": "ESPY WELLS", "TSP": "AEP", "County": "JEFF DAVIS", "Utility EIA ID": "20404", "Zip Code": "79734", "Latitude": 30.52242, "Longitude": -103.9269 }, "geometry": { "type": "Point", "coordinates": [ -103.9269, 30.52242 ] } },
{ "type": "Feature", "properties": { "PSSE New BUS": "6692", "SSWG Bus Name": "POND2A", "SSWG kV": "69", "Weather Zone": "WZ_FAR_WEST", "Settlement Zone": "LZ_WEST", "Planning Bus Long Name": "KENNEDY PONDER", "TSP": "AEP", "County": "JEFF DAVIS", "Utility EIA ID": "20404", "Zip Code": "79843", "Latitude": 30.467, "Longitude": -103.9486 }, "geometry": { "type": "Point", "coordinates": [ -103.9486, 30.467 ] } },
{ "type": "Feature", "properties": { "PSSE New BUS": "7053", "SSWG Bus Name": "L_NOELK5_1Y", "SSWG kV": "345", "Weather Zone": "WZ_FAR_WEST", "Settlement Zone": "LZ_WEST", "Planning Bus Long Name": "NOELKE", "TSP": "LCRA", "County": "CROCKETT", "Utility EIA ID": "", "Zip Code": "76932", "Latitude": 30.98434, "Longitude": -101.70041 }, "geometry": { "type": "Point", "coordinates": [ -101.70041, 30.98434 ] } },
{ "type": "Feature", "properties": { "PSSE New BUS": "7387", "SSWG Bus Name": "L_KUNITZ8_1Y", "SSWG kV": "138", "Weather Zone": "WZ_FAR_WEST", "Settlement Zone": "LZ_WEST", "Planning Bus Long Name": "KUNITZ", "TSP": "LCRA", "County": "CULBERSON", "Utility EIA ID": "", "Zip Code": "79849", "Latitude": 31.76763, "Longitude": -104.9033 }, "geometry": { "type": "Point", "coordinates": [ -104.9033, 31.76763 ] } },
{ "type": "Feature", "properties": { "PSSE New BUS": "11015", "SSWG Bus Name": "YUCCA_SR_8", "SSWG kV": "138", "Weather Zone": "WZ_FAR_WEST", "Settlement Zone": "LZ_WEST", "Planning Bus Long Name": "YUCCA_SR_8", "TSP": "ONCOR", "County": "WARD", "Utility EIA ID": "44372", "Zip Code": "79756", "Latitude": 31.58479, "Longitude": -102.9627 }, "geometry": { "type": "Point", "coordinates": [ -102.9627, 31.58479 ] } },
{ "type": "Feature", "properties": { "PSSE New BUS": "11016", "SSWG Bus Name": "QUAILSW_5", "SSWG kV": "345", "Weather Zone": "WZ_FAR_WEST", "Settlement Zone": "LZ_WEST", "Planning Bus Long Name": "QUAILSW_5", "TSP": "ONCOR", "County": "ECTOR", "Utility EIA ID": "44372", "Zip Code": "79766", "Latitude": 31.84049, "Longitude": -102.31596 }, "geometry": { "type": "Point", "coordinates": [ -102.31596, 31.84049 ] } },
{ "type": "Feature", "properties": { "PSSE New BUS": "11028", "SSWG Bus Name": "ODESEHV2_5", "SSWG kV": "345", "Weather Zone": "WZ_FAR_WEST", "Settlement Zone": "LZ_WEST", "Planning Bus Long Name": "ODESEHV2_5", "TSP": "ONCOR", "County": "ECTOR", "Utility EIA ID": "44372", "Zip Code": "79766", "Latitude": 31.83626, "Longitude": -102.3295 }, "geometry": { "type": "Point", "coordinates": [ -102.3295, 31.83626 ] } },
{ "type": "Feature", "properties": { "PSSE New BUS": "11073", "SSWG Bus Name": "RUDD_8", "SSWG kV": "138", "Weather Zone": "WZ_FAR_WEST", "Settlement Zone": "LZ_WEST", "Planning Bus Long Name": "RUDD_8", "TSP": "ONCOR", "County": "WINKLER", "Utility EIA ID": "44372", "Zip Code": "79754", "Latitude": 31.70422, "Longitude": -103.47612 }, "geometry": { "type": "Point", "coordinates": [ -103.47612, 31.70422 ] } },
{ "type": "Feature", "properties": { "PSSE New BUS": "11076", "SSWG Bus Name": "TOYSHAM_8", "SSWG kV": "138", "Weather Zone": "WZ_FAR_WEST", "Settlement Zone": "LZ_WEST", "Planning Bus Long Name": "NHARPOON_8", "TSP": "ONCOR", "County": "WARD", "Utility EIA ID": "", "Zip Code": "79785", "Latitude": 31.26223, "Longitude": -103.807198 }, "geometry": { "type": "Point", "coordinates": [ -103.807198, 31.26223 ] } },
{ "type": "Feature", "properties": { "PSSE New BUS": "11079", "SSWG Bus Name": "SALTCRKS_8", "SSWG kV": "138", "Weather Zone": "WZ_FAR_WEST", "Settlement Zone": "LZ_WEST", "Planning Bus Long Name": "SALTCREKSO_8", "TSP": "ONCOR", "County": "WINKLER", "Utility EIA ID": "44372", "Zip Code": "79770", "Latitude": 33.23107, "Longitude": -100.87 }, "geometry": { "type": "Point", "coordinates": [ -100.87, 33.23107 ] } },
{ "type": "Feature", "properties": { "PSSE New BUS": "11080", "SSWG Bus Name": "THRMIDRW_8", "SSWG kV": "138", "Weather Zone": "WZ_FAR_WEST", "Settlement Zone": "LZ_WEST", "Planning Bus Long Name": "THRMIDRW_8", "TSP": "ONCOR", "County": "WINKLER", "Utility EIA ID": "44372", "Zip Code": "79770", "Latitude": 31.80813, "Longitude": -103.90492 }, "geometry": { "type": "Point", "coordinates": [ -103.90492, 31.80813 ] } },
{ "type": "Feature", "properties": { "PSSE New BUS": "11082", "SSWG Bus Name": "MAVRKDRW_8", "SSWG kV": "138", "Weather Zone": "WZ_FAR_WEST", "Settlement Zone": "LZ_WEST", "Planning Bus Long Name": "CULBER2119_8", "TSP": "ONCOR", "County": "WINKLER", "Utility EIA ID": "44372", "Zip Code": "79847", "Latitude": 31.70885, "Longitude": -104.11802 }, "geometry": { "type": "Point", "coordinates": [ -104.11802, 31.70885 ] } },
{ "type": "Feature", "properties": { "PSSE New BUS": "11083", "SSWG Bus Name": "RIVERTON_8", "SSWG kV": "138", "Weather Zone": "WZ_FAR_WEST", "Settlement Zone": "LZ_WEST", "Planning Bus Long Name": "MASONT_8", "TSP": "ONCOR", "County": "LOVING", "Utility EIA ID": "44372", "Zip Code": "79770", "Latitude": 31.80694, "Longitude": -103.86142 }, "geometry": { "type": "Point", "coordinates": [ -103.86142, 31.80694 ] } },
{ "type": "Feature", "properties": { "PSSE New BUS": "11086", "SSWG Bus Name": "MCHALAM_8", "SSWG kV": "138", "Weather Zone": "WZ_FAR_WEST", "Settlement Zone": "LZ_WEST", "Planning Bus Long Name": "REEVESPOD_8", "TSP": "ONCOR", "County": "WINKLER", "Utility EIA ID": "44372", "Zip Code": "79772", "Latitude": 31.54582, "Longitude": -103.82294 }, "geometry": { "type": "Point", "coordinates": [ -103.82294, 31.54582 ] } },
{ "type": "Feature", "properties": { "PSSE New BUS": "11090", "SSWG Bus Name": "OWLHILLS_8", "SSWG kV": "138", "Weather Zone": "WZ_FAR_WEST", "Settlement Zone": "LZ_WEST", "Planning Bus Long Name": "OWLHILLS_8", "TSP": "ONCOR", "County": "WINKLER", "Utility EIA ID": "44372", "Zip Code": "79770", "Latitude": 31.81778, "Longitude": -104.04645 }, "geometry": { "type": "Point", "coordinates": [ -104.04645, 31.81778 ] } },
{ "type": "Feature", "properties": { "PSSE New BUS": "11091", "SSWG Bus Name": "WHEATPOD_8", "SSWG kV": "138", "Weather Zone": "WZ_FAR_WEST", "Settlement Zone": "LZ_WEST", "Planning Bus Long Name": "WHEATPOD_8", "TSP": "ONCOR", "County": "WINKLER", "Utility EIA ID": "44372", "Zip Code": "79754", "Latitude": 31.72241, "Longitude": -103.60046 }, "geometry": { "type": "Point", "coordinates": [ -103.60046, 31.72241 ] } },
{ "type": "Feature", "properties": { "PSSE New BUS": "11097", "SSWG Bus Name": "SANDLAKE_8", "SSWG kV": "138", "Weather Zone": "WZ_FAR_WEST", "Settlement Zone": "LZ_WEST", "Planning Bus Long Name": "SANDLAKE_8", "TSP": "ONCOR", "County": "WINKLER", "Utility EIA ID": "44372", "Zip Code": "79722", "Latitude": 31.50968, "Longitude": -103.51722 }, "geometry": { "type": "Point", "coordinates": [ -103.51722, 31.50968 ] } },
{ "type": "Feature", "properties": { "PSSE New BUS": "11100", "SSWG Bus Name": "LINDRNCH_N8", "SSWG kV": "138", "Weather Zone": "WZ_FAR_WEST", "Settlement Zone": "LZ_WEST", "Planning Bus Long Name": "LINDRNCH1_8", "TSP": "ONCOR", "County": "WINKLER", "Utility EIA ID": "44372", "Zip Code": "79754", "Latitude": 31.78809, "Longitude": -103.61976 }, "geometry": { "type": "Point", "coordinates": [ -103.61976, 31.78809 ] } },
{ "type": "Feature", "properties": { "PSSE New BUS": "11101", "SSWG Bus Name": "LINDRNCH_S8", "SSWG kV": "138", "Weather Zone": "WZ_FAR_WEST", "Settlement Zone": "LZ_WEST", "Planning Bus Long Name": "LINDRNCH2", "TSP": "ONCOR", "County": "WINKLER", "Utility EIA ID": "44372", "Zip Code": "79754", "Latitude": 31.78809, "Longitude": -103.61976 }, "geometry": { "type": "Point", "coordinates": [ -103.61976, 31.78809 ] } },
{ "type": "Feature", "properties": { "PSSE New BUS": "11103", "SSWG Bus Name": "RUSTHLLS_8", "SSWG kV": "138", "Weather Zone": "WZ_FAR_WEST", "Settlement Zone": "LZ_WEST", "Planning Bus Long Name": "HAYHURST_8", "TSP": "ONCOR", "County": "WINKLER", "Utility EIA ID": "20404", "Zip Code": "76903", "Latitude": 31.45118, "Longitude": -100.42596 }, "geometry": { "type": "Point", "coordinates": [ -100.42596, 31.45118 ] } },
{ "type": "Feature", "properties": { "PSSE New BUS": "11107", "SSWG Bus Name": "ALLIGATOR_8", "SSWG kV": "138", "Weather Zone": "WZ_FAR_WEST", "Settlement Zone": "LZ_WEST", "Planning Bus Long Name": "PEREGRINE_8", "TSP": "ONCOR", "County": "WINKLER", "Utility EIA ID": "", "Zip Code": "88220", "Latitude": 31.887341, "Longitude": -104.342606 }, "geometry": { "type": "Point", "coordinates": [ -104.342606, 31.887341 ] } },
{ "type": "Feature", "properties": { "PSSE New BUS": "11111", "SSWG Bus Name": "YARBRGH_8", "SSWG kV": "138", "Weather Zone": "WZ_FAR_WEST", "Settlement Zone": "LZ_WEST", "Planning Bus Long Name": "YARBRGH_8", "TSP": "ONCOR", "County": "ECTOR", "Utility EIA ID": "", "Zip Code": "", "Latitude": 0.0, "Longitude": 0.0 }, "geometry": { "type": "Point", "coordinates": [ 0.0, 0.0 ] } },
{ "type": "Feature", "properties": { "PSSE New BUS": "11112", "SSWG Bus Name": "CHIMWELL_8", "SSWG kV": "138", "Weather Zone": "WZ_FAR_WEST", "Settlement Zone": "LZ_WEST", "Planning Bus Long Name": "CHEVWEST_8", "TSP": "ONCOR", "County": "WINKLER", "Utility EIA ID": "", "Zip Code": "88220", "Latitude": 31.939099, "Longitude": -104.312102 }, "geometry": { "type": "Point", "coordinates": [ -104.312102, 31.939099 ] } },
{ "type": "Feature", "properties": { "PSSE New BUS": "11117", "SSWG Bus Name": "PECOSTRAIL_8", "SSWG kV": "138", "Weather Zone": "WZ_FAR_WEST", "Settlement Zone": "LZ_WEST", "Planning Bus Long Name": "PECOSTRAIL_8", "TSP": "ONCOR", "County": "WARD", "Utility EIA ID": "", "Zip Code": "79730", "Latitude": 31.273146, "Longitude": -103.084766 }, "geometry": { "type": "Point", "coordinates": [ -103.084766, 31.273146 ] } },
{ "type": "Feature", "properties": { "PSSE New BUS": "11128", "SSWG Bus Name": "SHINOAK_8", "SSWG kV": "138", "Weather Zone": "WZ_FAR_WEST", "Settlement Zone": "LZ_WEST", "Planning Bus Long Name": "BLCKBEARD_8", "TSP": "ONCOR", "County": "WARD", "Utility EIA ID": "", "Zip Code": "79770", "Latitude": 31.80801, "Longitude": -103.90448 }, "geometry": { "type": "Point", "coordinates": [ -103.90448, 31.80801 ] } },
{ "type": "Feature", "properties": { "PSSE New BUS": "11148", "SSWG Bus Name": "MAGWALT_8", "SSWG kV": "138", "Weather Zone": "WZ_FAR_WEST", "Settlement Zone": "LZ_WEST", "Planning Bus Long Name": "WINKSAND_8", "TSP": "ONCOR", "County": "WINKLER", "Utility EIA ID": "44372", "Zip Code": "79745", "Latitude": 31.95418, "Longitude": -102.98576 }, "geometry": { "type": "Point", "coordinates": [ -102.98576, 31.95418 ] } },
{ "type": "Feature", "properties": { "PSSE New BUS": "11180", "SSWG Bus Name": "ARYOBLUFF_T8", "SSWG kV": "138", "Weather Zone": "WZ_FAR_WEST", "Settlement Zone": "LZ_WEST", "Planning Bus Long Name": "ARYOBLUFF_T8", "TSP": "ONCOR", "County": "WINKLER", "Utility EIA ID": "44372", "Zip Code": "79770", "Latitude": 31.84977, "Longitude": -103.88685 }, "geometry": { "type": "Point", "coordinates": [ -103.88685, 31.84977 ] } },
{ "type": "Feature", "properties": { "PSSE New BUS": "11190", "SSWG Bus Name": "HRSHOESPG_8", "SSWG kV": "138", "Weather Zone": "WZ_FAR_WEST", "Settlement Zone": "LZ_WEST", "Planning Bus Long Name": "OWLHILLST_8", "TSP": "ONCOR", "County": "WINKLER", "Utility EIA ID": "", "Zip Code": "79772", "Latitude": 31.83262, "Longitude": -104.24897 }, "geometry": { "type": "Point", "coordinates": [ -104.24897, 31.83262 ] } },
{ "type": "Feature", "properties": { "PSSE New BUS": "11191", "SSWG Bus Name": "CASTLEHLLS_8", "SSWG kV": "138", "Weather Zone": "WZ_FAR_WEST", "Settlement Zone": "LZ_WEST", "Planning Bus Long Name": "CASTLEHLLS_8", "TSP": "ONCOR", "County": "WINKLER", "Utility EIA ID": "", "Zip Code": "78213", "Latitude": 29.538506, "Longitude": -98.525835 }, "geometry": { "type": "Point", "coordinates": [ -98.525835, 29.538506 ] } },
{ "type": "Feature", "properties": { "PSSE New BUS": "11243", "SSWG Bus Name": "PELCNSPG_8", "SSWG kV": "138", "Weather Zone": "WZ_FAR_WEST", "Settlement Zone": "LZ_WEST", "Planning Bus Long Name": "PELCNSPG_8", "TSP": "ONCOR", "County": "WARD", "Utility EIA ID": "", "Zip Code": "79785", "Latitude": 31.299587, "Longitude": -103.919347 }, "geometry": { "type": "Point", "coordinates": [ -103.919347, 31.299587 ] } },
{ "type": "Feature", "properties": { "PSSE New BUS": "11244", "SSWG Bus Name": "BLAKEDRW_8", "SSWG kV": "138", "Weather Zone": "WZ_FAR_WEST", "Settlement Zone": "LZ_WEST", "Planning Bus Long Name": "PECOSPOI_8", "TSP": "ONCOR", "County": "WARD", "Utility EIA ID": "", "Zip Code": "79777", "Latitude": 31.313847, "Longitude": -103.222168 }, "geometry": { "type": "Point", "coordinates": [ -103.222168, 31.313847 ] } },
{ "type": "Feature", "properties": { "PSSE New BUS": "11252", "SSWG Bus Name": "HALLEY_W8", "SSWG kV": "138", "Weather Zone": "WZ_FAR_WEST", "Settlement Zone": "LZ_WEST", "Planning Bus Long Name": "HALLEY_W8", "TSP": "ONCOR", "County": "WINKLER", "Utility EIA ID": "44372", "Zip Code": "79745", "Latitude": 31.72934, "Longitude": -102.99214 }, "geometry": { "type": "Point", "coordinates": [ -102.99214, 31.72934 ] } },
{ "type": "Feature", "properties": { "PSSE New BUS": "11253", "SSWG Bus Name": "HALLEY_E8", "SSWG kV": "138", "Weather Zone": "WZ_FAR_WEST", "Settlement Zone": "LZ_WEST", "Planning Bus Long Name": "GOLDJUNC_8", "TSP": "ONCOR", "County": "ECTOR", "Utility EIA ID": "44372", "Zip Code": "79745", "Latitude": 31.72934, "Longitude": -102.99214 }, "geometry": { "type": "Point", "coordinates": [ -102.99214, 31.72934 ] } },
{ "type": "Feature", "properties": { "PSSE New BUS": "11254", "SSWG Bus Name": "GOLDSOUTH_8", "SSWG kV": "138", "Weather Zone": "WZ_FAR_WEST", "Settlement Zone": "LZ_WEST", "Planning Bus Long Name": "GOLDJUNC_8", "TSP": "ONCOR", "County": "ECTOR", "Utility EIA ID": "44372", "Zip Code": "79741", "Latitude": 31.9298, "Longitude": -102.61484 }, "geometry": { "type": "Point", "coordinates": [ -102.61484, 31.9298 ] } },
{ "type": "Feature", "properties": { "PSSE New BUS": "11256", "SSWG Bus Name": "GOLDSMTH_8", "SSWG kV": "138", "Weather Zone": "WZ_FAR_WEST", "Settlement Zone": "LZ_WEST", "Planning Bus Long Name": "GOLDSMTH8", "TSP": "ONCOR", "County": "ECTOR", "Utility EIA ID": "44372", "Zip Code": "79741", "Latitude": 31.97501, "Longitude": -102.6365 }, "geometry": { "type": "Point", "coordinates": [ -102.6365, 31.97501 ] } },
{ "type": "Feature", "properties": { "PSSE New BUS": "11257", "SSWG Bus Name": "ECTRSHLL_9", "SSWG kV": "69", "Weather Zone": "WZ_FAR_WEST", "Settlement Zone": "LZ_WEST", "Planning Bus Long Name": "ECTRSHLL_9", "TSP": "ONCOR", "County": "ECTOR", "Utility EIA ID": "44372", "Zip Code": "79759", "Latitude": 31.90172, "Longitude": -102.7274 }, "geometry": { "type": "Point", "coordinates": [ -102.7274, 31.90172 ] } },
{ "type": "Feature", "properties": { "PSSE New BUS": "11259", "SSWG Bus Name": "NTCOWDEN_8", "SSWG kV": "138", "Weather Zone": "WZ_FAR_WEST", "Settlement Zone": "LZ_WEST", "Planning Bus Long Name": "NTCOWDEN_8", "TSP": "ONCOR", "County": "ECTOR", "Utility EIA ID": "44372", "Zip Code": "79741", "Latitude": 31.99475, "Longitude": -102.5493 }, "geometry": { "type": "Point", "coordinates": [ -102.5493, 31.99475 ] } },
{ "type": "Feature", "properties": { "PSSE New BUS": "11260", "SSWG Bus Name": "DUNE_8", "SSWG kV": "138", "Weather Zone": "WZ_FAR_WEST", "Settlement Zone": "LZ_WEST", "Planning Bus Long Name": "DUNE_8", "TSP": "ONCOR", "County": "WINKLER", "Utility EIA ID": "", "Zip Code": "79745", "Latitude": 31.844091, "Longitude": -102.906017 }, "geometry": { "type": "Point", "coordinates": [ -102.906017, 31.844091 ] } },
{ "type": "Feature", "properties": { "PSSE New BUS": "11292", "SSWG Bus Name": "PENWELL_8", "SSWG kV": "138", "Weather Zone": "WZ_FAR_WEST", "Settlement Zone": "LZ_WEST", "Planning Bus Long Name": "HOWD2599_8", "TSP": "ONCOR", "County": "WARD", "Utility EIA ID": "44372", "Zip Code": "79759", "Latitude": 31.69068, "Longitude": -102.72343 }, "geometry": { "type": "Point", "coordinates": [ -102.72343, 31.69068 ] } },
{ "type": "Feature", "properties": { "PSSE New BUS": "18100", "SSWG Bus Name": "PBGENBUS_B", "SSWG kV": "138", "Weather Zone": "WZ_FAR_WEST", "Settlement Zone": "LZ_WEST", "Planning Bus Long Name": "PBGENBUS_B", "TSP": "ONCOR", "County": "WARD", "Utility EIA ID": "44372", "Zip Code": "79756", "Latitude": 31.58397, "Longitude": -102.96021 }, "geometry": { "type": "Point", "coordinates": [ -102.96021, 31.58397 ] } },
{ "type": "Feature", "properties": { "PSSE New BUS": "18105", "SSWG Bus Name": "PB5GEN_8", "SSWG kV": "138", "Weather Zone": "WZ_FAR_WEST", "Settlement Zone": "LZ_WEST", "Planning Bus Long Name": "PB5GEN_8", "TSP": "ONCOR", "County": "WARD", "Utility EIA ID": "44372", "Zip Code": "79756", "Latitude": 31.58397, "Longitude": -102.96021 }, "geometry": { "type": "Point", "coordinates": [ -102.96021, 31.58397 ] } },
{ "type": "Feature", "properties": { "PSSE New BUS": "37920", "SSWG Bus Name": "TNWINK____0", "SSWG kV": "69", "Weather Zone": "WZ_FAR_WEST", "Settlement Zone": "LZ_WEST", "Planning Bus Long Name": "WINK SUBSTATION", "TSP": "TNMP", "County": "WINKLER", "Utility EIA ID": "40051", "Zip Code": "79789", "Latitude": 31.7631, "Longitude": -103.1628 }, "geometry": { "type": "Point", "coordinates": [ -103.1628, 31.7631 ] } },
{ "type": "Feature", "properties": { "PSSE New BUS": "37921", "SSWG Bus Name": "TNWINKTP__0", "SSWG kV": "69", "Weather Zone": "WZ_FAR_WEST", "Settlement Zone": "LZ_WEST", "Planning Bus Long Name": "WINK TAP", "TSP": "TNMP", "County": "WINKLER", "Utility EIA ID": "40051", "Zip Code": "79789", "Latitude": 31.76277, "Longitude": -103.17523 }, "geometry": { "type": "Point", "coordinates": [ -103.17523, 31.76277 ] } },
{ "type": "Feature", "properties": { "PSSE New BUS": "37940", "SSWG Bus Name": "TNCALIFRNA0", "SSWG kV": "69", "Weather Zone": "WZ_FAR_WEST", "Settlement Zone": "LZ_WEST", "Planning Bus Long Name": "CALIFORNIA SUBSTATION", "TSP": "TNMP", "County": "WINKLER", "Utility EIA ID": "40051", "Zip Code": "79789", "Latitude": 31.7748, "Longitude": -103.13064 }, "geometry": { "type": "Point", "coordinates": [ -103.13064, 31.7748 ] } },
{ "type": "Feature", "properties": { "PSSE New BUS": "37960", "SSWG Bus Name": "TNWNKLRCO60", "SSWG kV": "69", "Weather Zone": "WZ_FAR_WEST", "Settlement Zone": "LZ_WEST", "Planning Bus Long Name": "WINKLER COUNTY-6 SUBSTATION", "TSP": "TNMP", "County": "WINKLER", "Utility EIA ID": "40051", "Zip Code": "79789", "Latitude": 31.66575, "Longitude": -103.1443 }, "geometry": { "type": "Point", "coordinates": [ -103.1443, 31.66575 ] } },
{ "type": "Feature", "properties": { "PSSE New BUS": "37980", "SSWG Bus Name": "TNWICKETT_0", "SSWG kV": "69", "Weather Zone": "WZ_FAR_WEST", "Settlement Zone": "LZ_WEST", "Planning Bus Long Name": "WICKETT SWITCHING STATION", "TSP": "TNMP", "County": "WARD", "Utility EIA ID": "40051", "Zip Code": "79788", "Latitude": 31.5979, "Longitude": -103.0209 }, "geometry": { "type": "Point", "coordinates": [ -103.0209, 31.5979 ] } },
{ "type": "Feature", "properties": { "PSSE New BUS": "37981", "SSWG Bus Name": "TNWICKETT_1", "SSWG kV": "138", "Weather Zone": "WZ_FAR_WEST", "Settlement Zone": "LZ_WEST", "Planning Bus Long Name": "WICKETT SWITCHING STATION", "TSP": "TNMP", "County": "WARD", "Utility EIA ID": "40051", "Zip Code": "79788", "Latitude": 31.5979, "Longitude": -103.0209 }, "geometry": { "type": "Point", "coordinates": [ -103.0209, 31.5979 ] } },
{ "type": "Feature", "properties": { "PSSE New BUS": "38001", "SSWG Bus Name": "TNPYOTE___1", "SSWG kV": "138", "Weather Zone": "WZ_FAR_WEST", "Settlement Zone": "LZ_WEST", "Planning Bus Long Name": "PYOTE SUBSTATION", "TSP": "TNMP", "County": "WARD", "Utility EIA ID": "40051", "Zip Code": "79777", "Latitude": 31.45106, "Longitude": -103.09737 }, "geometry": { "type": "Point", "coordinates": [ -103.09737, 31.45106 ] } },
{ "type": "Feature", "properties": { "PSSE New BUS": "38010", "SSWG Bus Name": "TNREWARDT_1", "SSWG kV": "138", "Weather Zone": "WZ_FAR_WEST", "Settlement Zone": "LZ_WEST", "Planning Bus Long Name": "REWARD TAP", "TSP": "TNMP", "County": "REEVES", "Utility EIA ID": "44372", "Zip Code": "79772", "Latitude": 31.35584, "Longitude": -103.33362 }, "geometry": { "type": "Point", "coordinates": [ -103.33362, 31.35584 ] } },
{ "type": "Feature", "properties": { "PSSE New BUS": "38011", "SSWG Bus Name": "TNREWARDM_1", "SSWG kV": "138", "Weather Zone": "WZ_FAR_WEST", "Settlement Zone": "LZ_WEST", "Planning Bus Long Name": "REWARD METER STATION", "TSP": "TNMP", "County": "REEVES", "Utility EIA ID": "44372", "Zip Code": "79772", "Latitude": 31.35584, "Longitude": -103.33362 }, "geometry": { "type": "Point", "coordinates": [ -103.33362, 31.35584 ] } },
{ "type": "Feature", "properties": { "PSSE New BUS": "38012", "SSWG Bus Name": "TNREWARDC_1", "SSWG kV": "138", "Weather Zone": "WZ_FAR_WEST", "Settlement Zone": "LZ_WEST", "Planning Bus Long Name": "REWARD CUSTOMER SUBSTATION", "TSP": "TNMP", "County": "REEVES", "Utility EIA ID": "44372", "Zip Code": "79772", "Latitude": 31.35584, "Longitude": -103.33362 }, "geometry": { "type": "Point", "coordinates": [ -103.33362, 31.35584 ] } },
{ "type": "Feature", "properties": { "PSSE New BUS": "38019", "SSWG Bus Name": "TNWORSHMDGD", "SSWG kV": "12", "Weather Zone": "WZ_FAR_WEST", "Settlement Zone": "LZ_WEST", "Planning Bus Long Name": "WORSHAM SUBSTATION", "TSP": "TNMP", "County": "REEVES", "Utility EIA ID": "40051", "Zip Code": "79772", "Latitude": 31.35621, "Longitude": -103.33442 }, "geometry": { "type": "Point", "coordinates": [ -103.33442, 31.35621 ] } },
{ "type": "Feature", "properties": { "PSSE New BUS": "38021", "SSWG Bus Name": "TNWORSHAM_1", "SSWG kV": "138", "Weather Zone": "WZ_FAR_WEST", "Settlement Zone": "LZ_WEST", "Planning Bus Long Name": "WORSHAM SUBSTATION", "TSP": "TNMP", "County": "REEVES", "Utility EIA ID": "40051", "Zip Code": "79772", "Latitude": 31.35621, "Longitude": -103.33442 }, "geometry": { "type": "Point", "coordinates": [ -103.33442, 31.35621 ] } },
{ "type": "Feature", "properties": { "PSSE New BUS": "38022", "SSWG Bus Name": "TNQUITODC_1", "SSWG kV": "138", "Weather Zone": "WZ_FAR_WEST", "Settlement Zone": "LZ_WEST", "Planning Bus Long Name": "QUITO DRAW CUSTOMER SUBSTATION", "TSP": "TNMP", "County": "REEVES", "Utility EIA ID": "44372", "Zip Code": "79772", "Latitude": 31.3248, "Longitude": -103.33808 }, "geometry": { "type": "Point", "coordinates": [ -103.33808, 31.3248 ] } },
{ "type": "Feature", "properties": { "PSSE New BUS": "38024", "SSWG Bus Name": "TNHARPOONM1", "SSWG kV": "138", "Weather Zone": "WZ_FAR_WEST", "Settlement Zone": "LZ_WEST", "Planning Bus Long Name": "HARPOON METER STATION", "TSP": "TNMP", "County": "REEVES", "Utility EIA ID": "40051", "Zip Code": "79772", "Latitude": 31.36376, "Longitude": -103.3654 }, "geometry": { "type": "Point", "coordinates": [ -103.3654, 31.36376 ] } },
{ "type": "Feature", "properties": { "PSSE New BUS": "38027", "SSWG Bus Name": "TNBIRDOPT_1", "SSWG kV": "138", "Weather Zone": "WZ_FAR_WEST", "Settlement Zone": "LZ_WEST", "Planning Bus Long Name": "BIRDS OF PREY TAP", "TSP": "TNMP", "County": "REEVES", "Utility EIA ID": "44372", "Zip Code": "79772", "Latitude": 31.37403, "Longitude": -103.42658 }, "geometry": { "type": "Point", "coordinates": [ -103.42658, 31.37403 ] } },
{ "type": "Feature", "properties": { "PSSE New BUS": "38028", "SSWG Bus Name": "TNBIRDOP__1", "SSWG kV": "138", "Weather Zone": "WZ_FAR_WEST", "Settlement Zone": "LZ_WEST", "Planning Bus Long Name": "BIRDS OF PREY METER STATION", "TSP": "TNMP", "County": "REEVES", "Utility EIA ID": "44372", "Zip Code": "79772", "Latitude": 31.37403, "Longitude": -103.42658 }, "geometry": { "type": "Point", "coordinates": [ -103.42658, 31.37403 ] } },
{ "type": "Feature", "properties": { "PSSE New BUS": "38029", "SSWG Bus Name": "TNBIRDOPC_1", "SSWG kV": "138", "Weather Zone": "WZ_FAR_WEST", "Settlement Zone": "LZ_WEST", "Planning Bus Long Name": "BIRDS OF PREY CUSTOMER SUBSTATION", "TSP": "TNMP", "County": "REEVES", "Utility EIA ID": "44372", "Zip Code": "79772", "Latitude": 31.37403, "Longitude": -103.42658 }, "geometry": { "type": "Point", "coordinates": [ -103.42658, 31.37403 ] } },
{ "type": "Feature", "properties": { "PSSE New BUS": "38037", "SSWG Bus Name": "TNCOLIET__1", "SSWG kV": "138", "Weather Zone": "WZ_FAR_WEST", "Settlement Zone": "LZ_WEST", "Planning Bus Long Name": "COLLIE FIELD TAP", "TSP": "TNMP", "County": "REEVES", "Utility EIA ID": "44372", "Zip Code": "79772", "Latitude": 31.41474, "Longitude": -103.46915 }, "geometry": { "type": "Point", "coordinates": [ -103.46915, 31.41474 ] } },
{ "type": "Feature", "properties": { "PSSE New BUS": "38038", "SSWG Bus Name": "TNCOLIEF__1", "SSWG kV": "138", "Weather Zone": "WZ_FAR_WEST", "Settlement Zone": "LZ_WEST", "Planning Bus Long Name": "COLLIE FIELD METER STATION", "TSP": "TNMP", "County": "REEVES", "Utility EIA ID": "44372", "Zip Code": "79772", "Latitude": 31.41474, "Longitude": -103.46915 }, "geometry": { "type": "Point", "coordinates": [ -103.46915, 31.41474 ] } },
{ "type": "Feature", "properties": { "PSSE New BUS": "38039", "SSWG Bus Name": "TNCOLIEFC_1", "SSWG kV": "138", "Weather Zone": "WZ_FAR_WEST", "Settlement Zone": "LZ_WEST", "Planning Bus Long Name": "COLLIE FIELD CUSTOMER SUBSTATION", "TSP": "TNMP", "County": "REEVES", "Utility EIA ID": "44372", "Zip Code": "79772", "Latitude": 31.41474, "Longitude": -103.46915 }, "geometry": { "type": "Point", "coordinates": [ -103.46915, 31.41474 ] } },
{ "type": "Feature", "properties": { "PSSE New BUS": "38040", "SSWG Bus Name": "TNIH20____0", "SSWG kV": "69", "Weather Zone": "WZ_FAR_WEST", "Settlement Zone": "LZ_WEST", "Planning Bus Long Name": "IH20 SUBSTATION", "TSP": "TNMP", "County": "REEVES", "Utility EIA ID": "44372", "Zip Code": "79772", "Latitude": 31.4003, "Longitude": -103.4911 }, "geometry": { "type": "Point", "coordinates": [ -103.4911, 31.4003 ] } },
{ "type": "Feature", "properties": { "PSSE New BUS": "38045", "SSWG Bus Name": "TNIH20____1", "SSWG kV": "138", "Weather Zone": "WZ_FAR_WEST", "Settlement Zone": "LZ_WEST", "Planning Bus Long Name": "IH20 SUBSTATION", "TSP": "TNMP", "County": "REEVES", "Utility EIA ID": "44372", "Zip Code": "79772", "Latitude": 31.4003, "Longitude": -103.491 }, "geometry": { "type": "Point", "coordinates": [ -103.491, 31.4003 ] } },
{ "type": "Feature", "properties": { "PSSE New BUS": "38046", "SSWG Bus Name": "TNIH20SVC_1", "SSWG kV": "138", "Weather Zone": "WZ_FAR_WEST", "Settlement Zone": "LZ_WEST", "Planning Bus Long Name": "IH20 SUBSTATION STATCOM BUS", "TSP": "TNMP", "County": "REEVES", "Utility EIA ID": "44372", "Zip Code": "79772", "Latitude": 31.4003, "Longitude": -103.4911 }, "geometry": { "type": "Point", "coordinates": [ -103.4911, 31.4003 ] } },
{ "type": "Feature", "properties": { "PSSE New BUS": "38056", "SSWG Bus Name": "TNSALTDRWM1", "SSWG kV": "138", "Weather Zone": "WZ_FAR_WEST", "Settlement Zone": "LZ_WEST", "Planning Bus Long Name": "SALT DRAW METER STATION", "TSP": "TNMP", "County": "REEVES", "Utility EIA ID": "3278", "Zip Code": "77414", "Latitude": 28.99777, "Longitude": -96.15052 }, "geometry": { "type": "Point", "coordinates": [ -96.15052, 28.99777 ] } },
{ "type": "Feature", "properties": { "PSSE New BUS": "38057", "SSWG Bus Name": "TNSALTDRWC1", "SSWG kV": "138", "Weather Zone": "WZ_FAR_WEST", "Settlement Zone": "LZ_WEST", "Planning Bus Long Name": "SALT DRAW CUSTOMER SUBSTATION", "TSP": "TNMP", "County": "REEVES", "Utility EIA ID": "3278", "Zip Code": "77414", "Latitude": 28.99777, "Longitude": -96.15052 }, "geometry": { "type": "Point", "coordinates": [ -96.15052, 28.99777 ] } },
{ "type": "Feature", "properties": { "PSSE New BUS": "38058", "SSWG Bus Name": "TNSADDLEBK1", "SSWG kV": "138", "Weather Zone": "WZ_FAR_WEST", "Settlement Zone": "LZ_WEST", "Planning Bus Long Name": "SADDLEBACK SUBSTATION", "TSP": "TNMP", "County": "REEVES", "Utility EIA ID": "40051", "Zip Code": "79772", "Latitude": 31.359381, "Longitude": -103.682384 }, "geometry": { "type": "Point", "coordinates": [ -103.682384, 31.359381 ] } },
{ "type": "Feature", "properties": { "PSSE New BUS": "38059", "SSWG Bus Name": "TNROYBEAN_1", "SSWG kV": "138", "Weather Zone": "WZ_FAR_WEST", "Settlement Zone": "LZ_WEST", "Planning Bus Long Name": "ROY BEAN CUSTOMER SUBSTATION", "TSP": "TNMP", "County": "REEVES", "Utility EIA ID": "40051", "Zip Code": "79772", "Latitude": 31.333075, "Longitude": -103.498354 }, "geometry": { "type": "Point", "coordinates": [ -103.498354, 31.333075 ] } },
{ "type": "Feature", "properties": { "PSSE New BUS": "38060", "SSWG Bus Name": "TNARROYO__1", "SSWG kV": "138", "Weather Zone": "WZ_FAR_WEST", "Settlement Zone": "LZ_WEST", "Planning Bus Long Name": "BARILLA DRAW FIELD TAP", "TSP": "TNMP", "County": "REEVES", "Utility EIA ID": "40051", "Zip Code": "79772", "Latitude": 31.25721, "Longitude": -103.4309 }, "geometry": { "type": "Point", "coordinates": [ -103.4309, 31.25721 ] } },
{ "type": "Feature", "properties": { "PSSE New BUS": "38061", "SSWG Bus Name": "TNBRDRAMI_1", "SSWG kV": "138", "Weather Zone": "WZ_FAR_WEST", "Settlement Zone": "LZ_WEST", "Planning Bus Long Name": "BARILLA DRAW AMI CUSTOMER SUBSTATION", "TSP": "TNMP", "County": "REEVES", "Utility EIA ID": "40051", "Zip Code": "79772", "Latitude": 31.25721, "Longitude": -103.4309 }, "geometry": { "type": "Point", "coordinates": [ -103.4309, 31.25721 ] } },
{ "type": "Feature", "properties": { "PSSE New BUS": "38062", "SSWG Bus Name": "TNBRDROX__1", "SSWG kV": "138", "Weather Zone": "WZ_FAR_WEST", "Settlement Zone": "LZ_WEST", "Planning Bus Long Name": "BARILLA DRAW CUSTOMER SUBSTATION", "TSP": "TNMP", "County": "REEVES", "Utility EIA ID": "40051", "Zip Code": "79772", "Latitude": 31.25721, "Longitude": -103.4309 }, "geometry": { "type": "Point", "coordinates": [ -103.4309, 31.25721 ] } },
{ "type": "Feature", "properties": { "PSSE New BUS": "38065", "SSWG Bus Name": "TNBRDRFLD_1", "SSWG kV": "138", "Weather Zone": "WZ_FAR_WEST", "Settlement Zone": "LZ_WEST", "Planning Bus Long Name": "BARILLA DRAW SWITCHING STATION", "TSP": "TNMP", "County": "REEVES", "Utility EIA ID": "40051", "Zip Code": "79772", "Latitude": 31.25721, "Longitude": -103.4309 }, "geometry": { "type": "Point", "coordinates": [ -103.4309, 31.25721 ] } },
{ "type": "Feature", "properties": { "PSSE New BUS": "38069", "SSWG Bus Name": "TNFLATTOP_1", "SSWG kV": "138", "Weather Zone": "WZ_FAR_WEST", "Settlement Zone": "LZ_WEST", "Planning Bus Long Name": "FLAT TOP SUBSTATION", "TSP": "TNMP", "County": "REEVES", "Utility EIA ID": "40051", "Zip Code": "79772", "Latitude": 31.19997, "Longitude": -103.35925 }, "geometry": { "type": "Point", "coordinates": [ -103.35925, 31.19997 ] } },
{ "type": "Feature", "properties": { "PSSE New BUS": "38090", "SSWG Bus Name": "TNPECOS___0", "SSWG kV": "69\/138", "Weather Zone": "WZ_FAR_WEST", "Settlement Zone": "LZ_WEST", "Planning Bus Long Name": "PECOS SUBSTATION", "TSP": "TNMP", "County": "REEVES", "Utility EIA ID": "44372", "Zip Code": "79772", "Latitude": 31.42859, "Longitude": -103.4987 }, "geometry": { "type": "Point", "coordinates": [ -103.4987, 31.42859 ] } },
{ "type": "Feature", "properties": { "PSSE New BUS": "38099", "SSWG Bus Name": "TNCOTTNWD_1", "SSWG kV": "138", "Weather Zone": "WZ_FAR_WEST", "Settlement Zone": "LZ_WEST", "Planning Bus Long Name": "COTTONWOOD SUBSTATION", "TSP": "TNMP", "County": "REEVES", "Utility EIA ID": "", "Zip Code": "79220", "Latitude": 33.7783, "Longitude": -100.87654 }, "geometry": { "type": "Point", "coordinates": [ -100.87654, 33.7783 ] } },
{ "type": "Feature", "properties": { "PSSE New BUS": "38100", "SSWG Bus Name": "TNGRISHAM_1", "SSWG kV": "138", "Weather Zone": "WZ_FAR_WEST", "Settlement Zone": "LZ_WEST", "Planning Bus Long Name": "GRISHAM METER STATION", "TSP": "TNMP", "County": "REEVES", "Utility EIA ID": "", "Zip Code": "79772", "Latitude": 31.5475, "Longitude": -103.82475 }, "geometry": { "type": "Point", "coordinates": [ -103.82475, 31.5475 ] } },
{ "type": "Feature", "properties": { "PSSE New BUS": "38101", "SSWG Bus Name": "TNGRISHAMC1", "SSWG kV": "138", "Weather Zone": "WZ_FAR_WEST", "Settlement Zone": "LZ_WEST", "Planning Bus Long Name": "GRISHAM CUSTOMER SUBSTATION", "TSP": "TNMP", "County": "REEVES", "Utility EIA ID": "", "Zip Code": "79772", "Latitude": 31.5475, "Longitude": -103.82475 }, "geometry": { "type": "Point", "coordinates": [ -103.82475, 31.5475 ] } },
{ "type": "Feature", "properties": { "PSSE New BUS": "38105", "SSWG Bus Name": "TNSANDLAKE1", "SSWG kV": "138", "Weather Zone": "WZ_FAR_WEST", "Settlement Zone": "LZ_WEST", "Planning Bus Long Name": "SANDLAKE SUBSTATION", "TSP": "TNMP", "County": "REEVES", "Utility EIA ID": "44372", "Zip Code": "79772", "Latitude": 31.49711, "Longitude": -103.4716 }, "geometry": { "type": "Point", "coordinates": [ -103.4716, 31.49711 ] } },
{ "type": "Feature", "properties": { "PSSE New BUS": "38106", "SSWG Bus Name": "TNSNDLKCEC1", "SSWG kV": "138", "Weather Zone": "WZ_FAR_WEST", "Settlement Zone": "LZ_WEST", "Planning Bus Long Name": "SANDLAKE EC CUSTOMER SUBSTATION", "TSP": "TNMP", "County": "REEVES", "Utility EIA ID": "44372", "Zip Code": "79772", "Latitude": 31.49711, "Longitude": -103.4716 }, "geometry": { "type": "Point", "coordinates": [ -103.4716, 31.49711 ] } },
{ "type": "Feature", "properties": { "PSSE New BUS": "38107", "SSWG Bus Name": "TNGEMSBOKM1", "SSWG kV": "138", "Weather Zone": "WZ_FAR_WEST", "Settlement Zone": "LZ_WEST", "Planning Bus Long Name": "GEMSBOK METER STATION", "TSP": "TNMP", "County": "WARD", "Utility EIA ID": "44372", "Zip Code": "79777", "Latitude": 31.515765, "Longitude": -103.278157 }, "geometry": { "type": "Point", "coordinates": [ -103.278157, 31.515765 ] } },
{ "type": "Feature", "properties": { "PSSE New BUS": "38108", "SSWG Bus Name": "TNGMSBKOPC1", "SSWG kV": "138", "Weather Zone": "WZ_FAR_WEST", "Settlement Zone": "LZ_WEST", "Planning Bus Long Name": "GEMSBOK OP CUSTOMER SUBSTATION", "TSP": "TNMP", "County": "WARD", "Utility EIA ID": "44372", "Zip Code": "79777", "Latitude": 31.516017, "Longitude": -103.27749 }, "geometry": { "type": "Point", "coordinates": [ -103.27749, 31.516017 ] } },
{ "type": "Feature", "properties": { "PSSE New BUS": "38109", "SSWG Bus Name": "TNGMSBKACC1", "SSWG kV": "138", "Weather Zone": "WZ_FAR_WEST", "Settlement Zone": "LZ_WEST", "Planning Bus Long Name": "GEMSBOK AC CUSTOMER SUBSTATION", "TSP": "TNMP", "County": "WARD", "Utility EIA ID": "44372", "Zip Code": "79777", "Latitude": 31.526798, "Longitude": -103.184871 }, "geometry": { "type": "Point", "coordinates": [ -103.184871, 31.526798 ] } },
{ "type": "Feature", "properties": { "PSSE New BUS": "38110", "SSWG Bus Name": "TNRATTLSNK1", "SSWG kV": "138", "Weather Zone": "WZ_FAR_WEST", "Settlement Zone": "LZ_WEST", "Planning Bus Long Name": "RATTLESNAKE SUBSTATION", "TSP": "TNMP", "County": "WARD", "Utility EIA ID": "40051", "Zip Code": "79785", "Latitude": 31.26189, "Longitude": -103.79358 }, "geometry": { "type": "Point", "coordinates": [ -103.79358, 31.26189 ] } },
{ "type": "Feature", "properties": { "PSSE New BUS": "38111", "SSWG Bus Name": "TNRATTLCCP1", "SSWG kV": "138", "Weather Zone": "WZ_FAR_WEST", "Settlement Zone": "LZ_WEST", "Planning Bus Long Name": "RATTLESNAKE CP CUSTOMER SUBSTATION", "TSP": "TNMP", "County": "WARD", "Utility EIA ID": "40051", "Zip Code": "79789", "Latitude": 31.73983, "Longitude": -103.28953 }, "geometry": { "type": "Point", "coordinates": [ -103.28953, 31.73983 ] } },
{ "type": "Feature", "properties": { "PSSE New BUS": "38113", "SSWG Bus Name": "TNCOYOTSPG1", "SSWG kV": "138", "Weather Zone": "WZ_FAR_WEST", "Settlement Zone": "LZ_WEST", "Planning Bus Long Name": "COYOTE SPRINGS SUBSTATION", "TSP": "TNMP", "County": "REEVES", "Utility EIA ID": "", "Zip Code": "79785", "Latitude": 31.28606, "Longitude": -103.98342 }, "geometry": { "type": "Point", "coordinates": [ -103.98342, 31.28606 ] } },
{ "type": "Feature", "properties": { "PSSE New BUS": "38117", "SSWG Bus Name": "TNETOYAHT_1", "SSWG kV": "138", "Weather Zone": "WZ_FAR_WEST", "Settlement Zone": "LZ_WEST", "Planning Bus Long Name": "EAST TOYAH 138KV TAP", "TSP": "TNMP", "County": "REEVES", "Utility EIA ID": "40051", "Zip Code": "79722", "Latitude": 31.36787, "Longitude": -103.67405 }, "geometry": { "type": "Point", "coordinates": [ -103.67405, 31.36787 ] } },
{ "type": "Feature", "properties": { "PSSE New BUS": "38118", "SSWG Bus Name": "TNETOYAHM_1", "SSWG kV": "138", "Weather Zone": "WZ_FAR_WEST", "Settlement Zone": "LZ_WEST", "Planning Bus Long Name": "EAST TOYAH 138KV METER STATION", "TSP": "TNMP", "County": "REEVES", "Utility EIA ID": "40051", "Zip Code": "79722", "Latitude": 31.36787, "Longitude": -103.67405 }, "geometry": { "type": "Point", "coordinates": [ -103.67405, 31.36787 ] } },
{ "type": "Feature", "properties": { "PSSE New BUS": "38119", "SSWG Bus Name": "TNETOYAHC_1", "SSWG kV": "138", "Weather Zone": "WZ_FAR_WEST", "Settlement Zone": "LZ_WEST", "Planning Bus Long Name": "EAST TOYAH 138KV CUSTOMER SUBSTATION", "TSP": "TNMP", "County": "REEVES", "Utility EIA ID": "40051", "Zip Code": "79722", "Latitude": 31.36787, "Longitude": -103.67405 }, "geometry": { "type": "Point", "coordinates": [ -103.67405, 31.36787 ] } },
{ "type": "Feature", "properties": { "PSSE New BUS": "38121", "SSWG Bus Name": "TNBLNGLEAT1", "SSWG kV": "138", "Weather Zone": "WZ_FAR_WEST", "Settlement Zone": "LZ_WEST", "Planning Bus Long Name": "BILLINGSLEA 138KV TAP", "TSP": "TNMP", "County": "REEVES", "Utility EIA ID": "40051", "Zip Code": "79772", "Latitude": 31.35688, "Longitude": -103.69792 }, "geometry": { "type": "Point", "coordinates": [ -103.69792, 31.35688 ] } },
{ "type": "Feature", "properties": { "PSSE New BUS": "38122", "SSWG Bus Name": "TNBLNGLEAM1", "SSWG kV": "138", "Weather Zone": "WZ_FAR_WEST", "Settlement Zone": "LZ_WEST", "Planning Bus Long Name": "BILLINGSLEA 138KV METER STATION", "TSP": "TNMP", "County": "REEVES", "Utility EIA ID": "40051", "Zip Code": "79772", "Latitude": 31.35945, "Longitude": -103.68231 }, "geometry": { "type": "Point", "coordinates": [ -103.68231, 31.35945 ] } },